city_ascii,lat,lng,country
Tokyo,35.685,139.7514,Japan
New York,40.6943,-73.9249, United States
Mexico City,19.4424,-99.131,Mexico
Mumbai,19.017,72.857,India
Sao Paulo,-23.5587,-46.625,Brazil
Delhi,28.67,77.23,India
Shanghai,31.2165,121.4365,China
Kolkata,22.495,88.3247,India
Los Angeles,34.1139,-118.4068, United States
Dhaka,23.7231,90.4086,Bangladesh
Buenos Aires,-34.6025,-58.3975,Argentina
Karachi,24.87,66.99,Pakistan
Cairo,30.05,31.25,Egypt
Rio de Janeiro,-22.925,-43.225,Brazil
Osaka,34.75,135.4601,Japan
Beijing,39.9289,116.3883,China
Manila,14.6042,120.9822,Philippines
Moscow,55.7522,37.6155,Russia
Istanbul,41.105,29.01,Turkey
Paris,48.8667,2.3333,France
Seoul,37.5663,126.9997,South Korea
Lagos,6.4433,3.3915,Nigeria
Jakarta,-6.1744,106.8294,Indonesia
Guangzhou,23.145,113.325,China
Chicago,41.8373,-87.6862, United States
London,51.5,-0.1167,United Kingdom
Lima,-12.048,-77.0501,Peru
Tehran,35.6719,51.4243,Iran
Kinshasa,-4.3297,15.315,Congo (Kinshasa)
Bogota,4.5964,-74.0833,Colombia
Shenzhen,22.5524,114.1221,China
Wuhan,30.58,114.27,China
Hong Kong,22.305,114.185,Hong Kong
Tianjin,39.13,117.2,China
Chennai,13.09,80.28,India
Taipei,25.0358,121.5683,Taiwan
Bengaluru,12.97,77.56,India
Bangkok,13.75,100.5166,Thailand
Lahore,31.56,74.35,Pakistan
Chongqing,29.565,106.595,China
Miami,25.7839,-80.2102, United States
Hyderabad,17.4,78.48,India
Dallas,32.7936,-96.7662, United States
Santiago,-33.45,-70.667,Chile
Philadelphia,40.0077,-75.1339, United States
Belo Horizonte,-19.915,-43.915,Brazil
Madrid,40.4,-3.6834,Spain
Houston,29.7869,-95.3905, United States
Ahmadabad,23.0301,72.58,India
Ho Chi Minh City,10.78,106.695,Vietnam
Washington,38.9047,-77.0163, United States
Atlanta,33.7627,-84.4225, United States
Toronto,43.7,-79.42,Canada
Singapore,1.293,103.8558,Singapore
Luanda,-8.8383,13.2344,Angola
Baghdad,33.3386,44.3939,Iraq
Barcelona,41.3833,2.1834,Spain
Haora,22.5804,88.3299,India
Shenyang,41.805,123.45,China
Khartoum,15.5881,32.5342,Sudan
Pune,18.53,73.85,India
Boston,42.3188,-71.0846, United States
Sydney,-33.92,151.1852,Australia
Saint Petersburg,59.939,30.316,Russia
Chittagong,22.33,91.8,Bangladesh
Dongguan,23.0489,113.7447,China
Riyadh,24.6408,46.7727,Saudi Arabia
Hanoi,21.0333,105.85,Vietnam
Guadalajara,20.67,-103.33,Mexico
Melbourne,-37.82,144.975,Australia
Alexandria,31.2,29.95,Egypt
Chengdu,30.67,104.07,China
Rangoon,16.7834,96.1667,Burma
Phoenix,33.5722,-112.0891, United States
Xi'an,34.275,108.895,China
Porto Alegre,-30.05,-51.2,Brazil
Surat,21.2,72.84,India
Hechi,23.0965,109.6091,China
Abidjan,5.32,-4.04,Côte D’Ivoire
Brasilia,-15.7833,-47.9161,Brazil
Ankara,39.9272,32.8644,Turkey
Monterrey,25.67,-100.33,Mexico
Yokohama,35.32,139.58,Japan
Nanjing,32.05,118.78,China
Montreal,45.5,-73.5833,Canada
Guiyang,26.58,106.72,China
Recife,-8.0756,-34.9156,Brazil
Seattle,47.6211,-122.3244, United States
Harbin,45.75,126.65,China
San Francisco,37.7562,-122.443, United States
Fortaleza,-3.75,-38.58,Brazil
Zhangzhou,24.5204,117.67,China
Detroit,42.3834,-83.1024, United States
Salvador,-12.97,-38.48,Brazil
Busan,35.0951,129.01,South Korea
Johannesburg,-26.17,28.03,South Africa
Berlin,52.5218,13.4015,Germany
Algiers,36.7631,3.0506,Algeria
Rome,41.896,12.4833,Italy
Pyongyang,39.0194,125.7547,"Korea, North"
Medellin,6.275,-75.575,Colombia
Kabul,34.5167,69.1833,Afghanistan
Athens,37.9833,23.7333,Greece
Nagoya,35.155,136.915,Japan
Cape Town,-33.92,18.435,South Africa
San Diego,32.8312,-117.1225, United States
Changchun,43.865,125.34,China
Casablanca,33.6,-7.6164,Morocco
Dalian,38.9228,121.6298,China
Cawnpore,26.46,80.32,India
Kano,12,8.52,Nigeria
Tel Aviv-Yafo,32.08,34.77,Israel
Addis Ababa,9.0333,38.7,Ethiopia
Curitiba,-25.42,-49.32,Brazil
Zibo,36.8,118.05,China
Jeddah (Jiddah),21.5169,39.2192,Saudi Arabia
Nairobi,-1.2833,36.8167,Kenya
Hangzhou,30.25,120.17,China
Benoni,-26.1496,28.3299,South Africa
Caracas,10.501,-66.917,Venezuela
Milan,45.47,9.205,Italy
Stuttgart,48.78,9.2,Germany
Kunming,25.07,102.68,China
Dar es Salaam,-6.8,39.2683,Tanzania
Minneapolis,44.9635,-93.2678, United States
Jaipur,26.9211,75.81,India
Taiyuan,37.875,112.5451,China
Frankfurt,50.1,8.675,Germany
Qingdao,36.09,120.33,China
Surabaya,-7.2492,112.7508,Indonesia
Lisbon,38.7227,-9.1449,Portugal
Tampa,27.9942,-82.4451, United States
Jinan,36.675,116.995,China
Fukuoka,33.595,130.41,Japan
Campinas,-22.9,-47.1,Brazil
Denver,39.7621,-104.8759, United States
Kaohsiung,22.6333,120.2666,Taiwan
Quezon City,14.6504,121.03,Philippines
Katowice,50.2604,19.02,Poland
Aleppo,36.23,37.17,Syria
Durban,-29.865,30.98,South Africa
Kyiv,50.4334,30.5166,Ukraine
Lucknow (Lakhnau),26.855,80.915,India
Giza,30.01,31.19,Egypt
Zhengzhou,34.755,113.6651,China
Taichung,24.1521,120.6817,Taiwan
Brooklyn,40.6501,-73.9496, United States
Ibadan,7.38,3.93,Nigeria
Faisalabad,31.41,73.11,Pakistan
Fuzhou,26.08,119.3,China
Changsha,28.2,112.97,China
Dakar,14.7158,-17.4731,Senegal
Izmir,38.4361,27.1518,Turkey
Xiangtan,27.8504,112.9,China
Lanzhou,36.056,103.792,China
Incheon,37.4761,126.6422,South Korea
Sapporo,43.075,141.34,Japan
Xiamen,24.45,118.08,China
Guayaquil,-2.22,-79.92,Ecuador
George Town,5.4136,100.3294,Malaysia
Mashhad,36.27,59.57,Iran
Damascus,33.5,36.3,Syria
Daegu,35.8668,128.607,South Korea
Nagpur,21.17,79.09,India
Lianshan,40.7503,120.83,China
Shijiazhuang,38.05,114.48,China
Tunis,36.8028,10.1797,Tunisia
Vienna,48.2,16.3666,Austria
Jilin,43.85,126.55,China
Omdurman,15.6167,32.48,Sudan
Bandung,-6.95,107.57,Indonesia
Bekasi,-6.2173,106.9723,Indonesia
Mannheim,49.5004,8.47,Germany
Nanchang,28.68,115.88,China
Wenzhou,28.02,120.6501,China
Queens,40.7498,-73.7976, United States
Vancouver,49.2734,-123.1216,Canada
Birmingham,52.475,-1.92,United Kingdom
Cali,3.4,-76.5,Colombia
Naples,40.84,14.245,Italy
Sendai,38.2871,141.0217,Japan
Manchester,53.5004,-2.248,United Kingdom
Puebla,19.05,-98.2,Mexico
Tripoli,32.8925,13.18,Libya
Tashkent,41.3117,69.2949,Uzbekistan
Havana,23.132,-82.3642,Cuba
Gaoping,30.7804,106.13,China
Baltimore,39.3051,-76.6144, United States
Nanning,22.82,108.32,China
Belem,-1.45,-48.48,Brazil
Patna,25.625,85.13,India
Santo Domingo,18.4701,-69.9001,Dominican Republic
Urumqi,43.805,87.575,China
Zaozhuang,34.88,117.57,China
Baku,40.3953,49.8622,Azerbaijan
Accra,5.55,-0.2167,Ghana
Yantai,37.5304,121.4,China
Medan,3.58,98.65,Indonesia
Santa Cruz,-17.7539,-63.226,Bolivia
Tongshan,34.28,117.18,China
Riverside,33.9381,-117.3948, United States
Linyi,35.08,118.33,China
Saint Louis,38.6358,-90.2451, United States
Las Vegas,36.2333,-115.2654, United States
Maracaibo,10.73,-71.66,Venezuela
Kuwait City,29.3697,47.9783,Kuwait
Ad Dammam,26.4282,50.0997,Saudi Arabia
Portland,45.5371,-122.65, United States
Haikou,20.05,110.32,China
Hiroshima,34.3878,132.4429,Japan
Baotou,40.6522,109.822,China
Hefei,31.85,117.28,China
Indore,22.7151,75.865,India
Goiania,-16.72,-49.3,Brazil
Sanaa,15.3547,44.2066,Yemen
San Antonio,29.4658,-98.5254, United States
Port-au-Prince,18.541,-72.336,Haiti
Haiphong,20.83,106.6801,Vietnam
Suzhou,33.6361,116.9789,China
Nanyang,33.0004,112.53,China
Bucharest,44.4334,26.0999,Romania
Ningbo,29.88,121.55,China
Douala,4.0604,9.71,Cameroon
Tangshan,39.6243,118.1944,China
Tainan,23,120.2,Taiwan
Xiping,40.08,113.3,China
Asuncion,-25.2964,-57.6415,Paraguay
Saidu Sharif,34.75,72.35,Pakistan
Brisbane,-27.455,153.0351,Australia
Rawalpindi,33.6,73.04,Pakistan
Sacramento,38.5667,-121.4683, United States
Beirut,33.872,35.5097,Lebanon
San Jose,37.3021,-121.8489, United States
Minsk,53.9,27.5666,Belarus
Kyoto,35.03,135.75,Japan
Barranquilla,10.96,-74.8,Colombia
Orlando,28.4772,-81.3369, United States
Shuyangzha,34.1299,118.7734,China
Valencia,10.23,-67.98,Venezuela
Hamburg,53.55,10,Germany
Vadodara,22.31,73.18,India
Manaus,-3.1,-60,Brazil
Shangqiu,34.4504,115.65,China
Wuxi,31.58,120.3,China
Palembang,-2.98,104.75,Indonesia
Brussels,50.8333,4.3333,Belgium
Essen,51.45,7.0166,Germany
Cleveland,41.4767,-81.6805, United States
Bhopal,23.25,77.41,India
Hohhot,40.82,111.66,China
Pittsburgh,40.4396,-79.9763, United States
Luoyang,34.68,112.4701,China
Santos,-23.9537,-46.3329,Brazil
Jingling,30.6501,113.16,China
Warsaw,52.25,21,Poland
Rabat,34.0253,-6.8361,Morocco
Vitoria,-20.324,-40.366,Brazil
Quito,-0.215,-78.5001,Ecuador
Antananarivo,-18.9166,47.5166,Madagascar
Coimbatore,11,76.95,India
Daqing,46.58,125,China
Lu'an,31.7503,116.48,China
Sanzhou,30.82,108.4,China
Budapest,47.5,19.0833,Hungary
Turin,45.0704,7.67,Italy
Suzhou,31.3005,120.62,China
Ludhiana,30.9278,75.8723,India
Cincinnati,39.1412,-84.506, United States
Kumasi,6.69,-1.63,Ghana
Manhattan,40.7834,-73.9662, United States
Qiqihar,47.345,123.99,China
Anshan,41.115,122.94,China
Austin,30.3006,-97.7517, United States
Zhongli,24.965,121.2168,Taiwan
Handan,36.58,114.48,China
Tai'an,36.2,117.1201,China
Esfahan,32.7,51.7,Iran
Kansas City,39.1239,-94.5541, United States
Yaounde,3.8667,11.5167,Cameroon
Shantou,23.37,116.67,China
Agra,27.1704,78.015,India
Zhanjiang,21.2,110.38,China
La Paz,-16.498,-68.15,Bolivia
Kalyan,19.2502,73.1602,India
Abuja,9.0833,7.5333,Nigeria
Harare,-17.8178,31.0447,Zimbabwe
Indianapolis,39.7771,-86.1458, United States
Xiantao,30.3704,113.44,China
Khulna,22.84,89.56,Bangladesh
Weifang,36.7204,119.1001,China
Tijuana,32.5,-117.08,Mexico
Santiago,19.5,-70.67,Dominican Republic
Xinyang,32.1304,114.07,China
Luzhou,28.88,105.38,China
Perth,-31.955,115.84,Australia
Toluca,19.3304,-99.67,Mexico
Vishakhapatnam,17.73,83.305,India
Leeds,53.83,-1.58,United Kingdom
Kobe,34.68,135.17,Japan
Columbus,39.986,-82.9851, United States
Multan,30.2,71.455,Pakistan
Kochi,10.015,76.2239,India
Montevideo,-34.858,-56.1711,Uruguay
Gujranwala,32.1604,74.185,Pakistan
Niteroi,-22.9,-43.1,Brazil
Ganzhou,25.92,114.95,China
Florence,43.78,11.25,Italy
Liuzhou,24.28,109.25,China
Bamako,12.65,-8,Mali
Conakry,9.5315,-13.6802,Guinea
Bursa,40.2,29.07,Turkey
Leon de los Aldama,21.15,-101.7,Mexico
Virginia Beach,36.7335,-76.0435, United States
Nasik,20.0004,73.78,India
Fushun,41.8654,123.87,China
Changde,29.03,111.68,China
Daejeon,36.3355,127.425,South Korea
Charlotte,35.2079,-80.8304, United States
Phnom Penh,11.55,104.9166,Cambodia
Neijiang,29.5804,105.05,China
Quanzhou,24.9,118.58,China
Kharkiv,50,36.25,Ukraine
Hyderabad City,25.38,68.375,Pakistan
Bronx,40.8501,-73.8662, United States
Lome,6.1319,1.2228,Togo
Cordoba,-31.4,-64.1823,Argentina
Huainan,32.63,116.98,China
Doha,25.2866,51.533,Qatar
Kuala Lumpur,3.1667,101.7,Malaysia
Maputo,-25.9553,32.5892,Mozambique
Kaduna,10.52,7.44,Nigeria
Gwangju,35.171,126.9104,South Korea
Kawanakajima,35.53,139.705,Japan
San Salvador,13.71,-89.203,El Salvador
Suining,30.5333,105.5333,China
Lyon,45.77,4.83,France
Karaj,35.8004,50.97,Iran
Kampala,0.3167,32.5833,Uganda
Tabriz,38.0863,46.3012,Iran
The Hague (Den Haag),52.08,4.27,Netherlands
Davao,7.11,125.63,Philippines
Marseille,43.29,5.375,France
Meerut,29.0004,77.7,India
Mianyang,31.47,104.77,China
Semarang,-6.9666,110.42,Indonesia
Faridabad,28.4333,77.3167,India
Novosibirsk,55.03,82.96,Russia
Mecca,21.43,39.82,Saudi Arabia
Dubai,25.23,55.28,United Arab Emirates
Milwaukee,43.0642,-87.9673, United States
Auckland,-36.8481,174.763,New Zealand
Ma'anshan,31.7304,118.48,China
Brazzaville,-4.2592,15.2847,Congo (Brazzaville)
Yiyang,28.6004,112.33,China
Varanasi,25.33,83,India
Lubumbashi,-11.68,27.48,Congo (Kinshasa)
Juarez,31.6904,-106.49,Mexico
Ghaziabad,28.6604,77.4084,India
Pretoria,-25.7069,28.2294,South Africa
Heze,35.23,115.45,China
Porto,41.15,-8.62,Portugal
Asansol,23.6833,86.9833,India
Lusaka,-15.4166,28.2833,Zambia
Changzhou,31.78,119.97,China
Mosul,36.345,43.145,Iraq
Yekaterinburg,56.85,60.6,Russia
Peshawar,34.005,71.535,Pakistan
Mandalay,21.97,96.085,Burma
Jamshedpur,22.7875,86.1975,India
Mbuji-Mayi,-6.15,23.6,Congo (Kinshasa)
Madura,9.92,78.12,India
Adana,36.995,35.32,Turkey
Sheffield,53.3667,-1.5,United Kingdom
Jabalpur,23.1751,79.9551,India
San Jose,9.935,-84.0841,Costa Rica
Panama City,8.968,-79.533,Panama
Nizhny Novgorod,56.333,44.0001,Russia
Chifeng,42.27,118.95,China
Duisburg,51.43,6.75,Germany
Munich,48.1299,11.575,Germany
Huaiyin,33.58,119.03,China
Stockholm,59.3508,18.0973,Sweden
Makassar,-5.14,119.432,Indonesia
Rajkot,22.31,70.8,India
Dhanbad,23.8004,86.42,India
Mudanjiang,44.575,129.59,China
Geneva,46.21,6.14,Switzerland
Shiraz,29.63,52.57,Iran
Huzhou,30.8704,120.1,China
Beidao,34.6,105.92,China
Shuangshui,26.5944,104.8333,China
Dusseldorf,51.2204,6.78,Germany
Gaozhou,21.9204,110.87,China
Seville (Sevilla),37.405,-5.98,Spain
Amritsar,31.64,74.87,India
Vila Velha,-20.3676,-40.318,Brazil
Vila Velha,3.2167,-51.2167,Brazil
Almaty,43.325,76.915,Kazakhstan
Providence,41.823,-71.4187, United States
Warangal,18.01,79.58,India
Rosario,-32.9511,-60.6663,Argentina
Allahabad,25.455,81.84,India
Benin City,6.3405,5.62,Nigeria
Jining,35.4004,116.55,China
Maceio,-9.62,-35.73,Brazil
Sofia,42.6833,23.3167,Bulgaria
Abbottabad,34.1495,73.1995,Pakistan
Benghazi,32.1167,20.0667,Libya
Cilacap,-7.7188,109.0154,Indonesia
Prague,50.0833,14.466,Czech Republic
Glasgow,55.8744,-4.2507,United Kingdom
Leshan,29.5671,103.7333,China
Jacksonville,30.3322,-81.6749, United States
Ouagadougou,12.3703,-1.5247,Burkina Faso
Ottawa,45.4167,-75.7,Canada
Adelaide,-34.935,138.6,Australia
Shangrao,28.4704,117.97,China
Torreon,25.5701,-103.42,Mexico
Srinagar,34.1,74.815,India
Bezwada,16.52,80.63,India
Samara,53.195,50.1513,Russia
Omsk,54.99,73.4,Russia
Newcastle,-32.8453,151.815,Australia
Yulin,22.63,110.15,China
Namp'o,38.7669,125.4524,"Korea, North"
Xianyang,34.3456,108.7147,China
Cagayan de Oro,8.4508,124.6853,Philippines
Can Tho,10.05,105.77,Vietnam
Barquisimeto,10.05,-69.3,Venezuela
Helsinki,60.1756,24.9341,Finland
Kazan,55.7499,49.1263,Russia
Aurangabad,19.8957,75.3203,India
Calgary,51.083,-114.08,Canada
Ciudad Nezahualcoyotl,19.41,-99.03,Mexico
Zurich,47.38,8.55,Switzerland
Baoding,38.8704,115.48,China
Zigong,29.4,104.78,China
Sharjah,25.3714,55.4065,United Arab Emirates
Yerevan,40.1812,44.5136,Armenia
Mogadishu,2.0667,45.3667,Somalia
Tbilisi,41.725,44.7908,Georgia
Ankang,32.68,109.02,China
Huambo,-12.75,15.76,Angola
Ikare,7.5304,5.76,Nigeria
Belgrade,44.8186,20.468,Serbia
Salt Lake City,40.7774,-111.93, United States
Bhilai,21.2167,81.4333,India
Jinhua,29.12,119.65,China
Chelyabinsk,55.155,61.4387,Russia
Natal,-5.78,-35.24,Brazil
Dushanbe,38.56,68.7739,Tajikistan
Copenhagen,55.6786,12.5635,Denmark
Changwon,35.2191,128.5836,South Korea
Zhuzhou,27.83,113.15,China
Suwon,37.2578,127.0109,South Korea
Nashville,36.1715,-86.7843, United States
Vereeniging,-26.6496,27.96,South Africa
Xiangyang,32.02,112.13,China
Memphis,35.1046,-89.9773, United States
Ulsan,35.5467,129.317,South Korea
Amman,31.95,35.9333,Jordan
Mizhou,35.99,119.3801,China
Richmond,37.5295,-77.4756, United States
Dublin,53.3331,-6.2489,Ireland
Edmonton,53.55,-113.5,Canada
Solapur,17.6704,75.9,India
Rostov-na-donu,47.2346,39.7127,Russia
Dnipro,48.48,35,Ukraine
Xining,36.62,101.77,China
Zhangjiakou,40.83,114.93,China
Lille,50.65,3.08,France
Ranchi,23.37,85.33,India
Gaziantep,37.075,37.385,Turkey
Monrovia,6.3106,-10.8048,Liberia
Sao Luis,-2.516,-44.266,Brazil
Amsterdam,52.35,4.9166,Netherlands
Jerusalem,31.7784,35.2066,Israel
New Orleans,30.0687,-89.9288, United States
Guatemala City,14.6211,-90.527,Guatemala
Zhuhai,22.2769,113.5678,China
Florianopolis,-27.58,-48.52,Brazil
Port Elizabeth,-33.97,25.6,South Africa
Jiamusi,46.83,130.35,China
Port Harcourt,4.81,7.01,Nigeria
Raleigh,35.8324,-78.6438, United States
Ufa,54.79,56.04,Russia
Hengyang,26.88,112.59,China
Benxi,41.3304,123.75,China
Louisville,38.1663,-85.6485, United States
Haifa,32.8204,34.98,Israel
Medina,24.5,39.58,Saudi Arabia
Bucaramanga,7.1301,-73.1259,Colombia
Maracay,10.2469,-67.5958,Venezuela
Rotterdam,51.92,4.48,Netherlands
Homs,34.73,36.72,Syria
Cologne,50.93,6.95,Germany
Qinhuangdao,39.9304,119.62,China
Fes,34.0546,-5.0004,Morocco
N'Djamena,12.1131,15.0491,Chad
Tegucigalpa,14.102,-87.2175,Honduras
Kingston,17.9771,-76.7674,Jamaica
Nay Pyi Taw,19.7666,96.1186,Burma
Djibouti,11.595,43.148,Djibouti
Managua,12.153,-86.2685,Nicaragua
Niamey,13.5167,2.1167,Niger
Tirana,41.3275,19.8189,Albania
Kathmandu,27.7167,85.3166,Nepal
Ulaanbaatar,47.9167,106.9166,Mongolia
Kigali,-1.9536,30.0605,Rwanda
Bishkek,42.8731,74.5852,Kyrgyzstan
Oslo,59.9167,10.75,Norway
Bangui,4.3666,18.5583,Central African Republic
Freetown,8.47,-13.2342,Sierra Leone
Islamabad,33.7,73.1666,Pakistan
Cotonou,6.4,2.52,Benin
Vientiane,17.9667,102.6,Laos
Riga,56.95,24.1,Latvia
Nouakchott,18.0864,-15.9753,Mauritania
Muscat,23.6133,58.5933,Oman
Ashgabat,37.95,58.3833,Turkmenistan
Zagreb,45.8,16,Croatia
Sarajevo,43.85,18.383,Bosnia And Herzegovina
Chisinau,47.005,28.8577,Moldova
Lilongwe,-13.9833,33.7833,Malawi
Asmara,15.3333,38.9333,Eritrea
Abu Dhabi,24.4667,54.3666,United Arab Emirates
Port Louis,-20.1666,57.5,Mauritius
Libreville,0.3854,9.458,Gabon
Manama,26.2361,50.5831,Bahrain
Vilnius,54.6834,25.3166,Lithuania
Skopje,42,21.4335,Macedonia
Bloemfontein,-29.12,26.2299,South Africa
Bratislava,48.15,17.117,Slovakia
Bissau,11.865,-15.5984,Guinea-Bissau
Tallinn,59.4339,24.728,Estonia
Wellington,-41.3,174.7833,New Zealand
Valletta,35.8997,14.5147,Malta
Maseru,-29.3167,27.4833,Lesotho
Nur-Sultan,51.1811,71.4278,Kazakhstan
Bujumbura,-3.3761,29.36,Burundi
Canberra,-35.283,149.129,Australia
New Delhi,28.6,77.2,India
Ljubljana,46.0553,14.515,Slovenia
Porto-Novo,6.4833,2.6166,Benin
Bandar Seri Begawan,4.8833,114.9333,Brunei
Port of Spain,10.652,-61.517,Trinidad And Tobago
Port Moresby,-9.4647,147.1925,Papua New Guinea
Bern,46.9167,7.467,Switzerland
Windhoek,-22.57,17.0835,Namibia
Georgetown,6.802,-58.167,Guyana
Paramaribo,5.835,-55.167,Suriname
Dili,-8.5594,125.5795,Timor-Leste
Nassau,25.0834,-77.35,"Bahamas, The"
Sucre,-19.041,-65.2595,Bolivia
Nicosia,35.1667,33.3666,Cyprus
Dodoma,-6.1833,35.75,Tanzania
Colombo,6.932,79.8578,Sri Lanka
Gaborone,-24.6463,25.9119,Botswana
Yamoussoukro,6.8184,-5.2755,Côte D’Ivoire
Bridgetown,13.102,-59.6165,Barbados
Suva,-18.133,178.4417,Fiji
Reykjavik,64.15,-21.95,Iceland
Malabo,3.75,8.7833,Equatorial Guinea
Willemstad,12.2004,-69.02,Curaçao
Podgorica,42.466,19.2663,Montenegro
Moroni,-11.7042,43.2402,Comoros
Sri Jayewardenepura Kotte,6.9,79.95,Sri Lanka
Praia,14.9167,-23.5167,Cabo Verde
Male,4.1667,73.4999,Maldives
Juba,4.83,31.58,South Sudan
Luxembourg,49.6117,6.13,Luxembourg
Thimphu,27.473,89.639,Bhutan
Mbabane,-26.3167,31.1333,Swaziland
Sao Tome,0.3334,6.7333,Sao Tome And Principe
Honiara,-9.438,159.9498,Solomon Islands
Oranjestad,12.5304,-70.029,Aruba
Apia,-13.8415,-171.7386,Samoa
Andorra la Vella,42.5,1.5165,Andorra
Kingstown,13.1483,-61.2121,Saint Vincent And The Grenadines
Port-Vila,-17.7334,168.3166,Vanuatu
Banjul,13.4539,-16.5917,"Gambia, The"
Nuku`alofa,-21.1385,-175.2206,Tonga
Castries,14.002,-61,Saint Lucia
Monaco,43.7396,7.4069,Monaco
Vaduz,47.1337,9.5167,Liechtenstein
Saint John's,17.118,-61.85,Antigua And Barbuda
Saint George's,12.0526,-61.7416,Grenada
Victoria,-4.6166,55.45,Seychelles
San Marino,43.9172,12.4667,San Marino
Tarawa,1.3382,173.0176,Kiribati
Majuro,7.103,171.38,Marshall Islands
Roseau,15.301,-61.387,Dominica
Basseterre,17.302,-62.717,Saint Kitts And Nevis
Belmopan,17.252,-88.7671,Belize
Pago Pago,-14.274,-170.7046,American Samoa
Lobamba,-26.4667,31.2,Swaziland
Funafuti,-8.5167,179.2166,Tuvalu
Palikir,6.9166,158.15,"Micronesia, Federated States Of"
Capitol Hill,15.2137,145.7546,Northern Mariana Islands
Hagta,13.4745,144.7504,Guam
Al Quds,31.7764,35.2269,West Bank
Philipsburg,18.0255,-63.045,Sint Maarten
Gitega,-3.4271,29.9246,Burundi
Pristina,42.6666,21.1724,Kosovo (Disputed Territory)
Ngerulmud,7.5,134.6242,Palau
Aden,12.7797,45.0095,Yemen
Cochabamba,-17.41,-66.17,Bolivia
Yongzhou,26.2304,111.62,China
Baoshan,25.12,99.15,China
Quang Ha,16.06,108.25,Vietnam
Kitaku,33.8704,130.82,Japan
Perm,58,56.25,Russia
Ahvaz,31.28,48.72,Iran
Jodhpur,26.2918,73.0168,India
San Luis Potosi,22.17,-101,Mexico
Odessa,46.49,30.71,Ukraine
Yinchuan,38.468,106.273,China
Jiaxing,30.7704,120.75,China
Joinvile,-26.32,-48.8399,Brazil
Donets'k,48,37.83,Ukraine
Guilin,25.28,110.28,China
Dahuk,36.8667,43,Iraq
Volgograd,48.71,44.5,Russia
Guwahati,26.16,91.77,India
Yichun,27.8333,114.4,China
Yangquan,37.87,113.57,China
Natal,-6.9838,-60.2699,Brazil
Chandigarh,30.72,76.78,India
Gwalior,26.23,78.1801,India
Hamamatsu,34.7181,137.7327,Japan
Qom,34.65,50.95,Iran
Jixi,45.3,130.97,China
Merida,20.9666,-89.6166,Mexico
Xin'an,34.38,118.35,China
Queretaro,20.63,-100.38,Mexico
Pingxiang,27.62,113.85,China
Joao Pessoa,-7.1011,-34.8761,Brazil
Klang,3.0204,101.55,Malaysia
Jinzhou,41.1204,121.1,China
Oklahoma City,35.4676,-97.5137, United States
Salerno,40.6804,14.7699,Italy
Thiruvananthapuram,8.5,76.95,India
Calicut,11.2504,75.77,India
Trichinopoly,10.81,78.69,India
Ogbomoso,8.13,4.24,Nigeria
General Santos,6.1108,125.1747,Philippines
Hue,16.47,107.58,Vietnam
Bacolod,10.6317,122.9817,Philippines
Nantong,32.0304,120.825,China
Foshan,23.0301,113.12,China
Songnam,37.4386,127.1378,South Korea
Bridgeport,41.1918,-73.1953, United States
Nice,43.715,7.265,France
Buffalo,42.9017,-78.8487, United States
Erbil (Irbil),36.179,44.0086,Iraq
Krasnoyarsk,56.014,92.866,Russia
Olinda,-8,-34.85,Brazil
Antwerp,51.2204,4.415,Belgium
Konya,37.875,32.475,Turkey
Bogor,-6.57,106.75,Indonesia
Hartford,41.7661,-72.6834, United States
Huaibei,33.9504,116.75,China
Xinyu,27.8,114.93,China
Teresina,-5.095,-42.78,Brazil
Naha,26.2072,127.673,Japan
Goyang,37.6527,126.8372,South Korea
Nangandao,35.3204,113.87,China
Yibin,28.77,104.57,China
Aba,5.1004,7.35,Nigeria
Maiduguri,11.85,13.16,Nigeria
Az Zarqa',32.07,36.1,Jordan
Tarsus,36.9204,34.88,Turkey
Bengbu,32.95,117.33,China
Mendoza,-32.8833,-68.8166,Argentina
Hubli,15.36,75.125,India
Concepcion,-36.83,-73.05,Chile
Zaria,11.08,7.71,Nigeria
Dengtalu,36.08,114.35,China
Cartagena,10.3997,-75.5144,Colombia
Mysore,12.31,76.66,India
Mexicali,32.65,-115.48,Mexico
Tongliao,43.62,122.27,China
Mombasa,-4.04,39.6899,Kenya
Newcastle upon Tyne,55.0004,-1.6,United Kingdom
Novo Hamburgo,-29.7096,-51.14,Brazil
Callao,-12.07,-77.135,Peru
Bilbao,43.25,-2.93,Spain
Johor Bahru,1.48,103.73,Malaysia
Raipur,21.235,81.635,India
Xiaoxita,30.7,111.28,China
Fort Worth,32.7812,-97.3472, United States
Salem,11.67,78.1801,India
Yangjiang,21.8504,111.97,China
Marrakech,31.63,-8,Morocco
Kaifeng Chengguanzhen,34.85,114.35,China
Dandong,40.1436,124.3936,China
Al Basrah,30.5135,47.8136,Iraq
Aguascalientes,21.8795,-102.2904,Mexico
Tucson,32.1545,-110.8782, United States
Okayama,34.672,133.9171,Japan
Bucheon,37.4989,126.7831,South Korea
Xuanzhou,30.9525,118.7553,China
Bandar Lampung,-5.43,105.27,Indonesia
Rizhao,35.4304,119.45,China
Palermo,38.125,13.35,Italy
Caerdydd,51.5,-3.225,United Kingdom
Tampico,22.3,-97.87,Mexico
Jiaozuo,35.25,113.22,China
Padang,-0.96,100.36,Indonesia
Jalandhar,31.3349,75.569,India
Zhenjiang,32.22,119.43,China
Valparaiso,-33.0478,-71.621,Chile
Pingdingshan,33.7304,113.3,China
Zunyi,27.7,106.92,China
Anshun,26.2504,105.93,China
Toulouse,43.62,1.4499,France
El Paso,31.8479,-106.4309, United States
Iguacu,-22.74,-43.47,Brazil
Bhubaneshwar,20.2704,85.8274,India
Voronezh,51.73,39.27,Russia
Saratov,51.58,46.03,Russia
Yuci,37.6804,112.73,China
Yancheng,33.3856,120.1253,China
Cuernavaca,18.9211,-99.24,Mexico
Linfen,36.0803,111.52,China
Honolulu,21.3294,-157.846, United States
Warri,5.52,5.76,Nigeria
Basel,47.5804,7.59,Switzerland
San Miguel de Tucuman,-26.816,-65.2166,Argentina
Kermanshah,34.38,47.06,Iran
Thessaloniki,40.6961,22.885,Greece
Omaha,41.2628,-96.0498, United States
Kota,25.18,75.835,India
Braga,41.555,-8.4213,Portugal
Jhansi,25.453,78.5575,India
Rongjiawan,29.3801,113.1,China
Nottingham,52.9703,-1.17,United Kingdom
Agadir,30.44,-9.62,Morocco
Butterworth,5.4171,100.4,Malaysia
Bareilly,28.3454,79.42,India
Jos,9.93,8.89,Nigeria
Xingyi,25.0904,104.89,China
Cebu City,10.32,123.9001,Philippines
Arequipa,-16.42,-71.53,Peru
Liverpool,53.416,-2.918,United Kingdom
Wuhu,31.3504,118.37,China
Langfang,39.5204,116.68,China
Rajshahi,24.375,88.605,Bangladesh
Zhaotong,27.3204,103.72,China
Culiacan,24.83,-107.38,Mexico
Valencia,39.485,-0.4,Spain
Lingyuan,41.24,119.4011,China
Cuiaba,-15.5696,-56.085,Brazil
Quy Nhon,13.78,109.18,Vietnam
Malang,-7.98,112.61,Indonesia
Aligarh,27.8922,78.0618,India
L'viv,49.835,24.03,Ukraine
Bordeaux,44.85,-0.595,France
McAllen,26.2273,-98.2471, United States
Baojishi,34.38,107.15,China
Pekanbaru,0.565,101.425,Indonesia
Oran,35.71,-0.62,Algeria
Yingkou,40.6703,122.28,China
Bhiwandi,19.35,73.13,India
Liaoyang,41.28,123.18,China
Chihuahua,28.645,-106.085,Mexico
Jammu,32.7118,74.8467,India
Melaka,2.2064,102.2465,Malaysia
Zaporizhzhya,47.8573,35.1768,Ukraine
Moradabad,28.8418,78.7568,India
Antalya,36.89,30.7,Turkey
Al Hudaydah,14.7979,42.953,Yemen
Campo Grande,-20.45,-54.6166,Brazil
Shaoxing,30.0004,120.57,China
Yichun,47.6999,128.9,China
Mangalore,12.9,74.85,India
Wuppertal,51.25,7.17,Germany
Cheongju,36.6439,127.5012,South Korea
Zamboanga City,6.92,122.08,Philippines
Hamhung,39.9101,127.5454,"Korea, North"
Fuyang,30.0533,119.9519,China
Ilorin,8.49,4.55,Nigeria
Saarbrucken,49.2504,6.97,Germany
Fuxin,42.0105,121.66,China
Shiyan,32.57,110.78,China
Quetta,30.22,67.025,Pakistan
Trujillo,-8.12,-79.02,Peru
Kananga,-5.89,22.4,Congo (Kinshasa)
Trabzon,40.98,39.72,Turkey
Jincheng,35.5004,112.83,China
Albuquerque,35.1053,-106.6464, United States
Lodz,51.775,19.4514,Poland
Krakow (Cracow),50.06,19.96,Poland
Saltillo,25.42,-101.005,Mexico
Sao Jose dos Campos,-23.2,-45.8799,Brazil
Hungnam,39.8231,127.6232,"Korea, North"
Ta`izz,13.6045,44.0394,Yemen
Pietermaritzburg,-29.61,30.39,South Africa
Tangier,35.7473,-5.8327,Morocco
Hsinchu,24.8168,120.9767,Taiwan
Changhua,24.0734,120.5134,Taiwan
Kolhapur,16.7,74.22,India
Farg`ona,40.39,71.78,Uzbekistan
Namangan,41,71.67,Uzbekistan
Liege,50.63,5.58,Belgium
Ciudad Guayana,8.37,-62.62,Venezuela
Birmingham,33.5277,-86.7987, United States
Hegang,47.4,130.37,China
Naga City,13.6192,123.1814,Philippines
Gdansk,54.36,18.64,Poland
Ansan,37.3481,126.8595,South Korea
Nuremberg,49.45,11.08,Germany
Oyo,7.8504,3.93,Nigeria
Amravati,20.95,77.77,India
Denpasar,-8.65,115.22,Indonesia
Sokoto,13.06,5.24,Nigeria
Beihai,21.4804,109.1,China
Bremen,53.08,8.8,Germany
As Sulaymaniyah,35.5613,45.4309,Iraq
Hannover,52.367,9.7167,Germany
Cucuta,7.92,-72.52,Colombia
Hamilton,43.25,-79.83,Canada
Moshi,-3.3396,37.34,Tanzania
Shaoguan,24.8,113.58,China
Kumamoto,32.8009,130.7006,Japan
Dayton,39.7797,-84.1998, United States
Xinpu,34.6004,119.17,China
Acapulco de Juarez,16.85,-99.916,Mexico
Kandahar,31.61,65.6949,Afghanistan
Dehra Dun,30.3204,78.05,India
Rochester,43.168,-77.6162, United States
Jeonju,35.8314,127.1404,South Korea
Samarkand,39.67,66.945,Uzbekistan
Qingyuan,23.7004,113.0301,China
Sarasota,27.3386,-82.543, United States
Changzhi,36.1839,113.1053,China
Tol'yatti,53.4804,49.53,Russia
Jaboatao,-8.11,-35.02,Brazil
Shizuoka,34.9858,138.3854,Japan
Bulawayo,-20.17,28.58,Zimbabwe
Soledad,10.92,-74.77,Colombia
Fresno,36.7831,-119.7941, United States
Meknes,33.9004,-5.56,Morocco
La Plata,-34.9096,-57.96,Argentina
Malegaon,20.5604,74.525,India
Enugu,6.45,7.5,Nigeria
Huangshi,30.22,115.1,China
Aracaju,-10.9,-37.12,Brazil
Allentown,40.5961,-75.4755, United States
Bonn,50.7205,7.08,Germany
San Pedro Sula,15.5,-88.03,Honduras
Nellore,14.44,79.9899,India
Catania,37.5,15.08,Italy
Gorakhpur,26.7504,83.38,India
Ipoh,4.6,101.065,Malaysia
Ch'ongjin,41.7846,129.79,"Korea, North"
Tulsa,36.1284,-95.9043, United States
Utsunomiya,36.55,139.87,Japan
Puyang Chengguanzhen,35.7004,114.98,China
An Najaf,32.0003,44.3354,Iraq
Sao Jose dos Pinhais,-25.57,-49.18,Brazil
Santo Andre,-23.6528,-46.5278,Brazil
Bytom,50.35,18.91,Poland
Pointe-Noire,-4.77,11.88,Congo (Brazzaville)
At Ta'if,21.2622,40.3823,Saudi Arabia
Ismailia,30.5903,32.26,Egypt
Concord,37.9722,-122.0016, United States
Shimoga,13.9304,75.56,India
Bien Hoa,10.97,106.8301,Vietnam
Xiping,25.6005,103.8166,China
Kryvyy Rih,47.9283,33.345,Ukraine
Irbid,32.55,35.85,Jordan
Tiruppur,11.0804,77.33,India
Andijon,40.79,72.34,Uzbekistan
Krasnodar,45.02,39,Russia
Zaragoza,41.65,-0.89,Spain
Genoa,44.41,8.93,Italy
Diyarbakir,37.9204,40.23,Turkey
Morelia,19.7334,-101.1895,Mexico
Ul'yanovsk,54.33,48.41,Russia
Utrecht,52.1003,5.12,Netherlands
Kikwit,-5.03,18.85,Congo (Kinshasa)
Al Hufuf,25.3487,49.5856,Saudi Arabia
Yogyakarta,-7.78,110.375,Indonesia
Wroclaw,51.1104,17.03,Poland
Winnipeg,49.883,-97.166,Canada
Izhevsk,56.85,53.23,Russia
Cape Coral,26.6445,-81.9955, United States
Springfield,42.1155,-72.5395, United States
Zhuozhou,39.5401,115.79,China
Raurkela,22.2304,84.83,India
Quebec City,46.84,-71.2456,Canada
Poznan,52.4058,16.8999,Poland
Colorado Springs,38.8674,-104.7606, United States
Port Said,31.26,32.29,Egypt
Nanded,19.17,77.3,India
Bannu,32.989,70.5986,Pakistan
Southend-on-Sea,51.55,0.72,United Kingdom
Dresden,51.05,13.75,Germany
Wiesbaden,50.0804,8.25,Germany
Charleston,32.8151,-79.963, United States
Changping,40.2248,116.1944,China
Palu,-0.907,119.833,Indonesia
Taizhou,32.4904,119.9,China
Xingtai,37.05,114.5,China
Samsun,41.28,36.3437,Turkey
Luxor,25.7,32.65,Egypt
Belgaum,15.865,74.505,India
Pontianak,-0.03,109.32,Indonesia
Yaroslavl',57.62,39.87,Russia
Constantine,36.36,6.5999,Algeria
Banjarmasin,-3.33,114.5801,Indonesia
Grand Rapids,42.9615,-85.6557, United States
Kirkuk,35.4722,44.3923,Iraq
Sangli,16.8604,74.575,India
Barcelona,10.1304,-64.72,Venezuela
Mission Viejo,33.6095,-117.655, United States
Suhaj,26.5504,31.7,Egypt
Al Mansurah,31.0504,31.38,Egypt
Canoas,-29.92,-51.18,Brazil
Barnaul,53.355,83.745,Russia
Zahedan,29.5,60.83,Iran
Jalalabad,34.4415,70.4361,Afghanistan
Albany,42.6664,-73.7987, United States
Chiclayo,-6.7629,-79.8366,Peru
Hermosillo,29.0989,-110.9541,Mexico
Chanda,19.97,79.3,India
Al Hillah,32.4721,44.4217,Iraq
Al Hillah,23.4895,46.7564,Saudi Arabia
Rasht,37.3,49.63,Iran
Nagano,36.65,138.17,Japan
Vinh,18.7,105.68,Vietnam
Abeokuta,7.1604,3.35,Nigeria
Kayseri,38.735,35.49,Turkey
Samarinda,-0.5,117.15,Indonesia
Ajmer,26.45,74.64,India
Dortmund,51.53,7.45,Germany
Vladivostok,43.13,131.91,Russia
Irkutsk,52.32,104.245,Russia
Knoxville,35.9692,-83.9496, United States
Blantyre,-15.79,34.9899,Malawi
Baton Rouge,30.4419,-91.131, United States
Anqing,30.5,117.05,China
Cuttack,20.47,85.8899,India
Hachioji,35.6577,139.3261,Japan
Khabarovsk,48.455,135.12,Russia
Veracruz,19.1773,-96.16,Mexico
Kisangani,0.52,25.22,Congo (Kinshasa)
Kerman,30.3,57.08,Iran
Orumiyeh,37.53,45,Iran
Bikaner,28.0304,73.3299,India
Quetzaltenango,14.83,-91.52,Guatemala
Bakersfield,35.353,-119.0359, United States
Ogden,41.228,-111.9677, United States
Shihezi,44.3,86.0299,China
Kuching,1.53,110.33,Malaysia
Shuozhou,39.3004,112.42,China
Niigata,37.92,139.04,Japan
Pereira,4.8104,-75.68,Colombia
Macau,22.203,113.545,Macau
New Haven,41.3112,-72.9246, United States
Bouake,7.69,-5.03,Côte D’Ivoire
Columbia,34.0376,-80.9037, United States
Akron,41.0798,-81.5219, United States
Binjai,3.6204,98.5001,Indonesia
Uberlandia,-18.9,-48.28,Brazil
Sorocaba,-23.49,-47.47,Brazil
Wusong,30.9504,117.78,China
Weihai,37.5,122.1,China
Mar del Plata,-38,-57.58,Argentina
Santiago de Cuba,20.025,-75.8213,Cuba
Siping,43.17,124.33,China
Kagoshima,31.586,130.5611,Japan
Surakarta,-7.565,110.825,Indonesia
Makhachkala,42.98,47.5,Russia
Bhavnagar,21.7784,72.13,India
Uyo,5.008,7.85,Nigeria
Bristol,51.45,-2.5833,United Kingdom
Bahawalpur,29.39,71.675,Pakistan
Kenitra,34.2704,-6.58,Morocco
Ribeirao Preto,-21.17,-47.83,Brazil
Kanazawa,36.56,136.64,Japan
Orenburg,51.78,55.11,Russia
Malaga,36.7204,-4.42,Spain
Tabuk,28.3838,36.555,Saudi Arabia
Puerto La Cruz,10.17,-64.68,Venezuela
Jiujiang,29.73,115.98,China
Hisar,29.17,75.725,India
Kashgar,39.4763,75.9699,China
Matola,-25.9696,32.46,Mozambique
Bilaspur,22.0904,82.16,India
Sargodha,32.0854,72.675,Pakistan
Leipzig,51.3354,12.41,Germany
Tinnevelly,8.7304,77.69,India
Cancun,21.17,-86.83,Mexico
Yangzhou,32.4,119.43,China
Novokuznetsk,53.75,87.115,Russia
Latakia,35.54,35.78,Syria
Heroica Matamoros,25.88,-97.5,Mexico
Goteborg,57.75,12,Sweden
Otsu,35.0064,135.8674,Japan
Tomsk,56.495,84.975,Russia
Linxia Chengguanzhen,35.6,103.2,China
Matsuyama,33.8455,132.7658,Japan
Rouen,49.4304,1.08,France
Jiangmen,22.5804,113.08,China
Oaxaca,17.0827,-96.6699,Mexico
Beira,-19.82,34.87,Mozambique
Guntur,16.33,80.45,India
Tripoli,34.42,35.87,Lebanon
Hamadan,34.796,48.515,Iran
Cangzhou,38.3204,116.87,China
Kota Kinabalu,5.98,116.11,Malaysia
Gold Coast,-28.0815,153.4482,Australia
Ji'an,27.1304,115,China
Londrina,-23.3,-51.18,Brazil
Ryazan',54.62,39.72,Russia
Shashi,30.32,112.23,China
Bello,6.33,-75.57,Colombia
Tyumen',57.14,65.53,Russia
Lipetsk,52.62,39.64,Russia
Shiliguri,26.7204,88.455,India
Eskisehir,39.795,30.53,Turkey
Banda Aceh,5.55,95.32,Indonesia
Ujjain,23.1904,75.79,India
Salta,-24.7834,-65.4166,Argentina
Penza,53.18,45,Russia
Blida,36.4203,2.83,Algeria
Mykolayiv,46.9677,31.9843,Ukraine
Karbala',32.6149,44.0245,Iraq
Suez,30.005,32.5499,Egypt
Gliwice,50.3304,18.67,Poland
Bukittinggi,-0.3031,100.3615,Indonesia
Liaoyuan,42.9,125.13,China
Kota Bharu,6.12,102.23,Malaysia
Jundiai,-23.2,-46.88,Brazil
Edinburgh,55.9483,-3.2191,United Kingdom
Tlaxcala,19.32,-98.23,Mexico
Provo,40.2457,-111.6457, United States
Arak,34.0804,49.7,Iran
Davangere,14.47,75.92,India
Vina del Mar,-33.03,-71.54,Chile
Pingtung,22.6817,120.4817,Taiwan
Annaba,36.92,7.76,Algeria
Akola,20.71,77.01,India
Brighton,50.8303,-0.17,United Kingdom
Astrakhan',46.3487,48.055,Russia
Bradford,53.8,-1.75,United Kingdom
Bari,41.1142,16.8728,Italy
Damanhur,31.0504,30.47,Egypt
Al Minya,28.09,30.75,Egypt
Taoyuan District,24.9889,121.3111,Taiwan
Keelung,25.1333,121.7333,Taiwan
San Lorenzo,-25.34,-57.52,Paraguay
Pasuruan,-7.6296,112.9,Indonesia
Chiayi,23.4755,120.4351,Taiwan
Thai Nguyen,21.6,105.83,Vietnam
Awka,6.2104,7.07,Nigeria
Shuangyashan,46.6704,131.35,China
Mazatan,29.0171,-110.1333,Mexico
Tsu,34.7171,136.5167,Japan
Mataram,-8.5795,116.135,Indonesia
Macapa,0.033,-51.05,Brazil
Worcester,42.2705,-71.8079, United States
Reynosa,26.08,-98.3,Mexico
Shahrisabz,39.0618,66.8315,Uzbekistan
Mesa,33.4017,-111.7181, United States
Duma,33.5833,36.4,Syria
Mwanza,-2.52,32.93,Tanzania
Wuwei,37.928,102.641,China
Palm Bay,27.955,-80.6628, United States
Port Sudan,19.6158,37.2164,Sudan
Santa Fe,-31.6239,-60.69,Argentina
Tula,54.2,37.6299,Russia
Bani Suwayf,29.0804,31.09,Egypt
Yanji,42.8823,129.5128,China
Toledo,41.6639,-83.5822, United States
Bologna,44.5004,11.34,Italy
Brookhaven,40.8321,-72.9518, United States
Saharanpur,29.97,77.55,India
Murrieta,33.572,-117.1909, United States
Gulbarga,17.35,76.82,India
Bhatpara,22.8504,88.52,India
Wichita,37.6897,-97.3441, United States
Ile-Ife,7.4804,4.56,Nigeria
Feira de Santana,-12.25,-38.97,Brazil
Shah Alam,3.0667,101.55,Malaysia
Mariupol',47.0962,37.5562,Ukraine
Des Moines,41.5725,-93.6105, United States
Tuxtla,16.75,-93.15,Mexico
Herat,34.33,62.17,Afghanistan
Homyel',52.43,31,Belarus
Zhaoqing,23.0504,112.45,China
Americana,-22.7499,-47.33,Brazil
Dhulia,20.9,74.77,India
Ostrava,49.8304,18.25,Czech Republic
Yazd,31.9201,54.37,Iran
Sialkot City,32.52,74.56,Pakistan
Kemerovo,55.34,86.09,Russia
Nazret,8.55,39.27,Ethiopia
Staten Island,40.5834,-74.1496, United States
Jiaojiangcun,28.6804,121.45,China
Chaoyang,41.5504,120.42,China
Juiz de Fora,-21.77,-43.375,Brazil
Udaipur,24.6,73.73,India
Long Beach,33.798,-118.1675, United States
Greenville,34.8362,-82.3649, United States
Kocaeli,40.776,29.9306,Turkey
Piraeus,37.95,23.7,Greece
Shymkent,42.32,69.595,Kazakhstan
Iligan,8.1712,124.2154,Philippines
Qazvin,36.27,50,Iran
Calabar,4.9604,8.33,Nigeria
Malatya,38.3704,38.3,Turkey
Dadukou,26.55,101.73,China
Bandar `Abbas,27.2041,56.2721,Iran
Naberezhnyye Chelny,55.7,52.3199,Russia
Hamah,35.1503,36.73,Syria
Cranbourne,-38.0996,145.2834,Australia
Iquitos,-3.75,-73.25,Peru
Mazar-e Sharif,36.7,67.1,Afghanistan
Leicester,52.63,-1.1332,United Kingdom
Kirov,58.5901,49.67,Russia
Jingdezhen,29.2704,117.18,China
Durango,24.0311,-104.67,Mexico
Jambi,-1.59,103.61,Indonesia
Volta Redonda,-22.5196,-44.095,Brazil
Hengshui,37.72,115.7,China
Sfax,34.75,10.72,Tunisia
Sunderland,54.92,-1.38,United Kingdom
Xalapa,19.53,-96.92,Mexico
Luhans'k,48.5698,39.3344,Ukraine
Manado,1.48,124.85,Indonesia
Qaraghandy,49.885,73.115,Kazakhstan
An Nasiriyah,31.0429,46.2676,Iraq
Oshawa,43.88,-78.85,Canada
Taihecun,45.8,130.85,China
Belfast,54.6,-5.96,United Kingdom
Sanliurfa,37.17,38.795,Turkey
Chengde,40.9604,117.93,China
Jiangguanchi,34.0204,113.82,China
Chlef,36.1704,1.32,Algeria
Oita,33.2432,131.5979,Japan
Baguio City,16.43,120.5699,Philippines
San Juan,-31.55,-68.52,Argentina
Cheboksary,56.13,47.25,Russia
Ado-Ekiti,7.6304,5.22,Nigeria
Balikpapan,-1.25,116.83,Indonesia
Bellary,15.15,76.915,India
Bamenda,5.96,10.15,Cameroon
Gent,51.03,3.7,Belgium
Tokushima,34.0674,134.5525,Japan
Little Rock,34.7255,-92.358, United States
Wuzhou,23.48,111.32,China
Portsmouth,50.8003,-1.08,United Kingdom
Harrisburg,40.2752,-76.8843, United States
Cabimas,10.43,-71.45,Venezuela
Foz do Iguacu,-25.5235,-54.53,Brazil
Denton,33.2176,-97.1419, United States
Wakayama,34.2231,135.1677,Japan
Strasbourg,48.58,7.75,France
Madison,43.0827,-89.3923, United States
Mawlamyine,16.5004,97.67,Burma
San Cristobal,7.77,-72.25,Venezuela
Nantes,47.2104,-1.59,France
Khujand,40.29,69.6199,Tajikistan
Guangyuan,32.43,105.87,China
Khomeyni Shahr,32.7004,51.47,Iran
Garoua,9.3,13.39,Cameroon
Bukavu,-2.51,28.84,Congo (Kinshasa)
Tuticorin,8.82,78.13,India
Nagasaki,32.765,129.885,Japan
Pohang,36.0209,129.3715,South Korea
Kaliningrad,54.7,20.4973,Russia
Likasi,-10.97,26.78,Congo (Kinshasa)
Reno,39.5497,-119.8483, United States
Spanish Town,17.9833,-76.95,Jamaica
Port St. Lucie,27.2796,-80.3884, United States
San Luis,-33.3,-66.35,Argentina
Katsina,12.9904,7.6,Nigeria
Welkom,-27.97,26.73,South Africa
Santa Marta,11.2472,-74.2017,Colombia
Villahermosa,18,-92.9,Mexico
Bryansk,53.26,34.43,Russia
Bournemouth,50.73,-1.9,United Kingdom
Bengkulu,-3.8,102.27,Indonesia
Heidelberg,49.42,8.7,Germany
Oakland,37.7903,-122.2165, United States
Kurnool,15.83,78.03,India
Chaozhou,23.68,116.63,China
Batangas,13.7817,121.0217,Philippines
Gaya,24.8,85,India
Ibague,4.4389,-75.2322,Colombia
Ivanovo,57.01,41.01,Russia
Erzurum,39.9204,41.29,Turkey
Akure,7.2504,5.2,Nigeria
Asyut,27.19,31.1799,Egypt
Kolwezi,-10.7167,25.4724,Congo (Kinshasa)
Sukkur,27.7136,68.8486,Pakistan
Luohe,33.57,114.03,China
Campina Grande,-7.23,-35.88,Brazil
Kitchener,43.45,-80.5,Canada
Winston-Salem,36.1029,-80.261, United States
Middlesbrough,54.5804,-1.23,United Kingdom
Meizhou,24.3005,116.12,China
Ardabil,38.25,48.3,Iran
Magnitogorsk,53.4227,58.98,Russia
Gifu,35.4231,136.7628,Japan
Huancayo,-12.08,-75.2,Peru
Nha Trang,12.25,109.17,Vietnam
Maturin,9.75,-63.17,Venezuela
Zhangjiakou Shi Xuanhua Qu,40.5944,115.0243,China
Kursk,51.74,36.19,Russia
Oujda-Angad,34.69,-1.91,Morocco
Metz,49.1203,6.18,France
Al `Ayn,24.2305,55.74,United Arab Emirates
Jeju,33.5101,126.5219,South Korea
Osogbo,7.7704,4.56,Nigeria
Indio,33.7346,-116.2346, United States
Ipatinga,-19.4796,-42.52,Brazil
Szczecin,53.4204,14.53,Poland
Durham,35.9795,-78.9032, United States
Syracuse,43.0409,-76.1438, United States
Chattanooga,35.0657,-85.2487, United States
Murcia,37.98,-1.13,Spain
Tanta,30.7904,31,Egypt
Kitwe,-12.81,28.22,Zambia
Lancaster,40.042,-76.3012, United States
Zanzibar,-6.16,39.2,Tanzania
Taubate,-23.0195,-45.56,Brazil
Ghulja,43.9,81.35,China
Pasay City,14.5504,121,Philippines
Spokane,47.6671,-117.433, United States
Mbale,1.0904,34.17,Uganda
Palm Coast,29.5392,-81.246, United States
Kassala,15.46,36.39,Sudan
Sunch'on,39.4236,125.939,"Korea, North"
Tver',56.86,35.89,Russia
Sikar,27.6104,75.14,India
Jiangjiafan,31.0304,112.1,China
Surgut,61.2599,73.425,Russia
Tumkur,13.33,77.1,India
Gomez Palacio,25.5701,-103.5,Mexico
Buraydah,26.3664,43.9628,Saudi Arabia
Khmel'nyts'kyy,49.4249,27.0015,Ukraine
Eindhoven,51.43,5.5,Netherlands
Chiang Mai,18.8,98.98,Thailand
Piura,-5.21,-80.63,Peru
Horlivka,48.2996,38.0547,Ukraine
Arlington,32.6998,-97.1251, United States
Ndola,-12.9999,28.65,Zambia
Yuxi,24.38,102.57,China
Bonita Springs,26.3559,-81.7861, United States
Poughkeepsie,41.6949,-73.921, United States
Kisumu,-0.09,34.75,Kenya
Stockton,37.9766,-121.3111, United States
Quilon,8.9004,76.57,India
El Obeid,13.1833,30.2167,Sudan
Nyala,12.06,24.89,Sudan
Sandakan,5.843,118.108,Malaysia
Ahmadnagar,19.1104,74.75,India
Osh,40.5404,72.79,Kyrgyzstan
Stoke-on-Trent,53.0004,-2.18,United Kingdom
Bhilwara,25.3504,74.635,India
Oxnard,34.1962,-119.1819, United States
Comilla,23.4704,91.17,Bangladesh
Augusta,33.3645,-82.0708, United States
Scranton,41.4044,-75.6649, United States
Samut Prakan,13.6069,100.6115,Thailand
Grenoble,45.1804,5.72,France
Nampula,-15.136,39.293,Mozambique
Nizamabad,18.6704,78.1,India
Granada,37.165,-3.585,Spain
Brno,49.2004,16.61,Czech Republic
Coventry,52.4204,-1.5,United Kingdom
Alajuela,10.02,-84.23,Costa Rica
Iloilo,10.705,122.545,Philippines
Campos,-21.75,-41.32,Brazil
Resistencia,-27.46,-58.99,Argentina
Baicheng,45.62,122.82,China
Qarshi,38.8704,65.8,Uzbekistan
Misratah,32.38,15.1,Libya
Ha'il,27.5236,41.7001,Saudi Arabia
Boise,43.6007,-116.2312, United States
Bejaia,36.7604,5.07,Algeria
Southampton,50.9,-1.4,United Kingdom
Celaya,20.53,-100.8,Mexico
Pasto,1.2136,-77.2811,Colombia
Modesto,37.6374,-121.0028, United States
Caxias do Sul,-29.18,-51.17,Brazil
Nizhniy Tagil,57.92,59.975,Russia
Xichang,27.88,102.3,China
Dezhou,37.4504,116.3,China
Vigo,42.22,-8.73,Spain
Las Palmas de Gran Canaria,28.1,-15.43,Spain
Parbhani,19.2704,76.76,India
Karlsruhe,49,8.4,Germany
Zhoukou,33.6304,114.63,China
Makiyivka,48.0297,37.9746,Ukraine
Putian,25.4303,119.02,China
Kahramanmaras,37.61,36.945,Turkey
Manizales,5.06,-75.52,Colombia
Palma,39.5743,2.6542,Spain
Manukau City,-37,174.885,New Zealand
Shillong,25.5705,91.88,India
Khorramabad,33.4804,48.35,Iran
Villavicencio,4.1533,-73.635,Colombia
Sao Jose do Rio Preto,-20.7996,-49.39,Brazil
Kaunas,54.9504,23.88,Lithuania
Latur,18.4004,76.57,India
Kissimmee,28.3042,-81.4164, United States
Youngstown,41.0993,-80.6463, United States
Shache,38.4261,77.25,China
Seremban,2.7105,101.94,Malaysia
Denizli,37.7704,29.08,Turkey
Van,38.4954,43.4,Turkey
A Coruna,43.33,-8.42,Spain
Madan,30.3307,48.2797,Iran
Quzhou,28.9704,118.87,China
Rajapalaiyam,9.4204,77.58,India
Reading,51.47,-0.98,United Kingdom
Najran,17.5065,44.1316,Saudi Arabia
Mahilyow,53.8985,30.3247,Belarus
Al Qatif,26.5196,50.0115,Saudi Arabia
Mazatlan,23.2211,-106.42,Mexico
Longyan,25.1804,117.03,China
Aurora,39.7084,-104.7274, United States
Bydgoszcz,53.1204,18.01,Poland
Kuantan,3.83,103.32,Malaysia
Gorontalo,0.55,123.07,Indonesia
Nakuru,-0.28,36.07,Kenya
Vladikavkaz,43.0504,44.67,Russia
Larkana,27.5618,68.2068,Pakistan
Christchurch,-43.535,172.63,New Zealand
Stavropol',45.05,41.98,Russia
Sanya,18.2591,109.504,China
Bhagalpur,25.23,86.98,India
Shekhupura,31.72,73.99,Pakistan
Cusco,-13.525,-71.9722,Peru
Tamale,9.4004,-0.84,Ghana
Ulan-Ude,51.825,107.625,Russia
Bobo-Dioulasso,11.18,-4.29,Burkina Faso
Lublin,51.2504,22.5727,Poland
Halifax,44.65,-63.6,Canada
Augsburg,48.35,10.9,Germany
Sungai Petani,5.6497,100.4793,Malaysia
Ad Diwaniyah,31.9889,44.924,Iraq
Taraz,42.9,71.365,Kazakhstan
Toulon,43.1342,5.9188,France
Zanjan,36.67,48.5,Iran
Donostia,43.3204,-1.98,Spain
Iwaki,37.0553,140.89,Japan
Encarnacion,-27.3472,-55.8739,Paraguay
Posadas,-27.3578,-55.8851,Argentina
Fuyu,45.1804,124.82,China
Ca Mau,9.1774,105.15,Vietnam
Asahikawa,43.755,142.38,Japan
Mirpur Khas,25.5318,69.0118,Pakistan
Arkhangel'sk,64.575,40.545,Russia
Wafangdian,39.6259,121.996,China
Ambon,-3.7167,128.2,Indonesia
Orizaba,18.85,-97.13,Mexico
Hongzhai,35.0476,104.6394,China
Santiago del Estero,-27.7833,-64.2667,Argentina
Mito,36.3704,140.48,Japan
Safi,32.32,-9.24,Morocco
Eldoret,0.52,35.27,Kenya
Rahimyar Khan,28.4202,70.2952,Pakistan
Neiva,2.931,-75.3302,Colombia
Anaheim,33.839,-117.8573, United States
Vinnytsya,49.2254,28.4816,Ukraine
Hualien,23.9837,121.6,Taiwan
Kuala Terengganu,5.3304,103.12,Malaysia
Long Xuyen,10.3804,105.42,Vietnam
Viet Tri,21.3304,105.43,Vietnam
Qo`qon,40.5404,70.94,Uzbekistan
Yingmen,39.83,97.73,China
Haarlem,52.3804,4.63,Netherlands
Buon Ma Thuot,12.667,108.05,Vietnam
Chimbote,-9.07,-78.57,Peru
Muzaffarnagar,29.485,77.695,India
Nuevo Laredo,27.5,-99.55,Mexico
Lancaster,34.6934,-118.1753, United States
Sanandaj,35.3,47.02,Iran
Linz,48.3192,14.2888,Austria
Camaguey,21.3808,-77.9169,Cuba
Verona,45.4404,10.99,Italy
Victorville,34.5277,-117.3536, United States
London,42.97,-81.25,Canada
Merida,8.4,-71.13,Venezuela
Charleroi,50.4204,4.45,Belgium
Belgorod,50.63,36.5999,Russia
Kusti,13.17,32.66,Sudan
Al `Amarah,31.8416,47.1512,Iraq
Maebashi,36.3927,139.0727,Japan
Pensacola,30.4427,-87.1886, United States
Kurgan,55.46,65.345,Russia
Kohat,33.6027,71.4327,Pakistan
Vitsyebsk,55.1887,30.1853,Belarus
Piracicaba,-22.71,-47.64,Brazil
Yeosu,34.7368,127.7458,South Korea
Fayetteville,36.0713,-94.166, United States
San Juan,18.4037,-66.0636,Puerto Rico
Corpus Christi,27.7261,-97.3755, United States
Jhang City,31.2804,72.325,Pakistan
Pematangsiantar,2.9614,99.0615,Indonesia
Arusha,-3.36,36.67,Tanzania
Corrientes,-27.49,-58.81,Argentina
Tamuramachi-moriyama,37.41,140.38,Japan
Plovdiv,42.154,24.754,Bulgaria
Chitungwiza,-18,31.1,Zimbabwe
Aksu,41.15,80.25,China
Yucheng,29.9804,103.08,China
Tieling,42.3004,123.82,China
Irapuato,20.67,-101.5,Mexico
Kaluga,54.5204,36.27,Russia
East London,-32.97,27.87,South Africa
Jackson,32.3163,-90.2124, United States
Kaesong,37.964,126.5644,"Korea, North"
Ciudad Bolivar,8.1,-63.6,Venezuela
Kawagoe,35.9177,139.4911,Japan
Jitpur,27.6666,85.3333,Nepal
Phan Thiet,10.9337,108.1001,Vietnam
Alor Setar,6.1133,100.3729,Malaysia
Santa Cruz de Tenerife,28.47,-16.25,Spain
Gijon,43.53,-5.67,Spain
Greensboro,36.0956,-79.8268, United States
Kochi,33.5624,133.5375,Japan
Flint,43.0235,-83.6922, United States
Islip,40.7384,-73.1887, United States
Bauru,-22.33,-49.08,Brazil
Nakhon Ratchasima,15,102.1,Thailand
Orel,52.97,36.07,Russia
Takamatsu,34.3447,134.0448,Japan
Santa Ana,33.7366,-117.8819, United States
Muzaffarpur,26.1204,85.3799,India
Beni,0.4904,29.45,Congo (Kinshasa)
Toyama,36.7,137.23,Japan
Hangu,39.232,117.777,China
Wad Medani,14.4,33.52,Sudan
Montes Claros,-16.72,-43.86,Brazil
Bielefeld,52.03,8.53,Germany
Heyuan,23.7304,114.68,China
Mathura,27.5,77.67,India
Mymensingh,24.7504,90.38,Bangladesh
Baishan,41.9,126.43,China
Patiala,30.3204,76.385,India
Wonsan,39.1605,127.4308,"Korea, North"
Pavlodar,52.3,76.95,Kazakhstan
Fort Wayne,41.0885,-85.1436, United States
Maringa,-23.4095,-51.93,Brazil
Saugor,23.8504,78.75,India
Sochi,43.59,39.73,Russia
Montpellier,43.6104,3.87,France
Itajai,-26.8996,-48.68,Brazil
Sousse,35.83,10.625,Tunisia
Ann Arbor,42.2755,-83.7312, United States
Iasi,47.1683,27.5749,Romania
Brahmapur,19.32,84.8,India
Birjand,32.88,59.2199,Iran
Fayetteville,35.0846,-78.9776, United States
Yoshkar-Ola,56.6354,47.8749,Russia
Miyazaki,31.9182,131.4184,Japan
Volzhskiy,48.7948,44.7744,Russia
Chenzhou,25.8004,113.0301,China
Valladolid,41.65,-4.75,Spain
Santa Rosa,38.4458,-122.7067, United States
Al Kut,32.4907,45.8304,Iraq
Cordoba,37.88,-4.77,Spain
Smolensk,54.7827,32.0473,Russia
Lansing,42.7142,-84.5601, United States
Ciudad del Este,-25.5167,-54.6161,Paraguay
Pelotas,-31.75,-52.33,Brazil
Podol'sk,55.3804,37.5299,Russia
Kherson,46.6325,32.6007,Ukraine
Shahjanpur,27.8804,79.905,India
Itu,-23.26,-47.3,Brazil
Legazpi City,13.17,123.75,Philippines
Akita,39.71,140.09,Japan
Maroua,10.5956,14.3247,Cameroon
Anapolis,-16.3196,-48.96,Brazil
Pachuca,20.1704,-98.73,Mexico
Bukhara,39.78,64.43,Uzbekistan
Murmansk,68.97,33.1,Russia
Windsor,42.3333,-83.0333,Canada
Holguin,20.8872,-76.2631,Cuba
Oskemen,49.99,82.6149,Kazakhstan
Tepic,21.5054,-104.88,Mexico
Vladimir,56.13,40.4099,Russia
Mobile,30.6782,-88.1163, United States
Hat Yai,6.9964,100.4714,Thailand
Poltava,49.574,34.5703,Ukraine
Cumana,10.45,-64.18,Venezuela
Hrodna,53.6779,23.8341,Belarus
Rohtak,28.9,76.58,India
Al Fayyum,29.31,30.84,Egypt
Cluj-Napoca,46.7884,23.5984,Romania
Bauchi,10.3104,9.84,Nigeria
Lexington,38.0423,-84.4587, United States
Alicante,38.3512,-0.4836,Spain
Dezful,32.3804,48.47,Iran
Maiquetia,10.6004,-66.97,Venezuela
Armenia,4.5343,-75.6811,Colombia
Timisoara,45.7588,21.2234,Romania
Pescara,42.4554,14.2187,Italy
Gdynia,54.5204,18.53,Poland
Angeles City,15.1451,120.5451,Philippines
Ningde,26.6804,119.5301,China
Aswan,24.0875,32.8989,Egypt
Varna,43.2156,27.8953,Bulgaria
Koblenz,50.3505,7.6,Germany
Cherepovets,59.1404,37.91,Russia
Qurghonteppa,37.8373,68.7713,Tajikistan
Semey,50.435,80.275,Kazakhstan
Galati,45.4559,28.0459,Romania
Brasov,45.6475,25.6072,Romania
Sambalpur,21.4704,83.9701,India
Pucallpa,-8.3689,-74.535,Peru
Antofagasta,-23.65,-70.4,Chile
Huntsville,34.6988,-86.6412, United States
Santa Clarita,34.4155,-118.4992, United States
Asheville,35.5704,-82.5537, United States
Sapele,5.8904,5.68,Nigeria
Dayr az Zawr,35.3304,40.13,Syria
Chita,52.055,113.465,Russia
Valledupar,10.48,-73.25,Colombia
Vitoria da Conquista,-14.85,-40.84,Brazil
Antsirabe,-19.85,47.0333,Madagascar
Nal'chik,43.4981,43.6179,Russia
Chernihiv,51.5049,31.3015,Ukraine
Ratlam,23.3504,75.03,India
St. Paul,44.9477,-93.104, United States
Ksar El Kebir,35.0204,-5.91,Morocco
Tawau,4.271,117.896,Malaysia
Firozabad,27.15,78.3949,India
Porto Velho,-8.75,-63.9,Brazil
San Salvador de Jujuy,-24.1833,-65.3,Argentina
Hatay,36.2304,36.12,Turkey
Franca,-20.53,-47.39,Brazil
Rajahmundry,17.0303,81.79,India
Olongapo,14.8296,120.2828,Philippines
Craiova,44.3263,23.8259,Romania
Kawm Umbu,24.47,32.95,Egypt
Los Teques,10.42,-67.02,Venezuela
Constanta,44.2027,28.61,Romania
Saransk,54.1704,45.18,Russia
Wenlan,23.3619,103.4061,China
Ganca,40.685,46.35,Azerbaijan
Fort Collins,40.5475,-105.0651, United States
Hakodate,41.795,140.74,Japan
Antioch,37.9789,-121.7957, United States
Chemnitz,50.83,12.92,Germany
Henderson,36.0146,-115.0362, United States
Kingston upon Hull,53.7504,-0.33,United Kingdom
Batman,37.8904,41.14,Turkey
Qina,26.1505,32.72,Egypt
Barddhaman,23.2504,87.865,India
Jinja,0.4404,33.1999,Uganda
Gujrat,32.58,74.08,Pakistan
Tambov,52.73,41.43,Russia
Kumul,42.827,93.515,China
Brest,52.1,23.7,Belarus
Mardan,34.2,72.04,Pakistan
Bidar,17.9229,77.5175,India
Rach Gia,10.0154,105.0914,Vietnam
Soc Trang,9.6037,105.98,Vietnam
Qyzylorda,44.8,65.465,Kazakhstan
Curepipe,-20.3162,57.5166,Mauritius
Kanggye,40.9732,126.6032,"Korea, North"
Ba`qubah,33.7476,44.6573,Iraq
Damietta,31.4204,31.82,Egypt
Oyster Bay,40.7845,-73.5139, United States
Jember,-8.1727,113.6873,Indonesia
Al Mubarraz,25.4291,49.5659,Saudi Arabia
Al Kharj,24.1556,47.312,Saudi Arabia
Aomori,40.825,140.71,Japan
Chernivtsi,48.3053,25.9216,Ukraine
Iskenderun,36.5804,36.17,Turkey
Cherkasy,49.4347,32.0709,Ukraine
Trenton,40.2236,-74.7641, United States
Rampur,28.8154,79.025,India
Morioka,39.72,141.13,Japan
Ar Ramadi,33.42,43.3,Iraq
Vologda,59.21,39.92,Russia
Sumy,50.9243,34.7809,Ukraine
Abertawe,51.63,-3.95,United Kingdom
Fukushima,37.74,140.47,Japan
Blumenau,-26.92,-49.09,Brazil
Thies,14.8104,-16.93,Senegal
Kakinada,16.9675,82.2375,India
Panipat,29.4004,76.97,India
Makurdi,7.73,8.53,Nigeria
Ponta Grossa,-25.09,-50.16,Brazil
Minna,9.62,6.55,Nigeria
Bialystok,53.1504,23.17,Poland
Mbeya,-8.89,33.43,Tanzania
Cagliari,39.2224,9.104,Italy
Lakeland,28.0557,-81.9545, United States
Khammam,17.2804,80.1601,India
Bafoussam,5.4904,10.4099,Cameroon
Kasur,31.1254,74.455,Pakistan
Hong'an,47.21,123.61,China
Kassel,51.3,9.5,Germany
Limeira,-22.5495,-47.4,Brazil
Victoria,48.4333,-123.35,Canada
Bhuj,23.2504,69.81,India
Huizhou,23.08,114.4,China
Karimnagar,18.4604,79.11,India
Sinuiju,40.0859,124.4213,"Korea, North"
Talcahuano,-36.7167,-73.1167,Chile
Ciudad Obregon,27.4666,-109.925,Mexico
Shreveport,32.4659,-93.7959, United States
Davenport,41.5563,-90.6052, United States
Coatzacoalcos,18.1204,-94.42,Mexico
Springfield,37.1943,-93.2915, United States
Tirupati,13.6504,79.42,India
Cuenca,-2.9,-79,Ecuador
Butembo,0.13,29.28,Congo (Kinshasa)
Sekondi,4.9433,-1.704,Ghana
Plano,33.0502,-96.7487, United States
Petropolis,-22.5095,-43.2,Brazil
Hospet,15.2804,76.375,India
Rangpur,25.75,89.28,Bangladesh
Rockford,42.2598,-89.0641, United States
Newark,40.7245,-74.1725, United States
Lincoln,40.8088,-96.6796, United States
Az Zaqaziq,30.5833,31.5167,Egypt
Mandya,12.5704,76.92,India
Round Lake Beach,42.379,-88.0811, United States
Bago,17.32,96.515,Burma
Barinas,8.6,-70.25,Venezuela
Iksan,35.941,126.9454,South Korea
Alwar,27.5454,76.6049,India
Cadiz,10.9587,123.3086,Philippines
Cadiz,36.535,-6.225,Spain
Aizawl,23.7104,92.72,India
Kupang,-10.1787,123.583,Indonesia
Tongchuanshi,35.08,109.03,China
Zhytomyr,50.2456,28.6622,Ukraine
Jining,41.03,113.08,China
Bahia Blanca,-38.74,-62.265,Argentina
Cap-Haitien,19.7592,-72.2125,Haiti
Ambato,-1.2696,-78.62,Ecuador
South Bend,41.6771,-86.2692, United States
Gorgan,36.8303,54.48,Iran
Batna,35.57,6.17,Algeria
Tacna,-18,-70.25,Peru
Savannah,32.0281,-81.1785, United States
Tacloban,11.2504,125,Philippines
Xinzhou,38.4104,112.72,China
Cotabato,7.2169,124.2484,Philippines
Rize,41.0208,40.5219,Turkey
Ica,-14.068,-75.7255,Peru
Sumqayit,40.58,49.63,Azerbaijan
Taganrog,47.23,38.92,Russia
Kaolack,14.15,-16.1,Senegal
Kostroma,57.77,40.94,Russia
Irvine,33.6772,-117.7738, United States
Owo,7.2004,5.59,Nigeria
Sukabumi,-6.9096,106.9,Indonesia
Komsomol'sk-na-Amure,50.555,137.02,Russia
Prokop'yevsk,53.9,86.71,Russia
Monteria,8.7575,-75.89,Colombia
Mbandaka,0.04,18.26,Congo (Kinshasa)
Ciudad Victoria,23.72,-99.13,Mexico
Setif,36.18,5.4,Algeria
Pamplona,42.82,-1.65,Spain
Jinshi,29.6321,111.8517,China
Ubon Ratchathani,15.25,104.83,Thailand
Crato,-7.2296,-39.42,Brazil
Crato,-7.4639,-63.04,Brazil
Guantanamo,20.1453,-75.2061,Cuba
Blackpool,53.8304,-3.05,United Kingdom
Majene,-3.5336,118.966,Indonesia
Yamagata,38.2705,140.32,Japan
Pekalongan,-6.8796,109.67,Indonesia
Elazig,38.68,39.23,Turkey
Sar Pol,36.5504,53.1,Iran
Canton,40.8076,-81.3678, United States
Tasikmalaya,-7.3254,108.2147,Indonesia
Bijapur,16.8354,75.71,India
Venice,45.4387,12.335,Italy
Jersey City,40.7161,-74.0683, United States
Chula Vista,32.6281,-117.0145, United States
Gombe,10.2904,11.17,Nigeria
Munster,51.9704,7.62,Germany
Thohoyandou,-22.95,30.48,South Africa
Kiel,54.3304,10.13,Germany
Malmo,55.5833,13.0333,Sweden
Nancy,48.6837,6.2,France
Mokpo,34.8068,126.3958,South Korea
Tebingtinggi,3.3304,99.13,Indonesia
Yanbu`,24.0943,38.0493,Saudi Arabia
Eugene,44.0563,-123.1173, United States
Tshikapa,-6.41,20.77,Congo (Kinshasa)
Reading,40.34,-75.9267, United States
Sterlitamak,53.63,55.96,Russia
Padangsidempuan,1.3887,99.2734,Indonesia
Myeik,12.4541,98.6115,Burma
Temuco,-38.73,-72.58,Chile
Lafayette,30.2084,-92.0323, United States
Lausanne,46.5304,6.65,Switzerland
Saint-Etienne,45.4304,4.38,France
Petrozavodsk,61.85,34.28,Russia
Imphal,24.8,93.95,India
Umuahia,5.532,7.486,Nigeria
Uruapan,19.4204,-102.07,Mexico
Sivas,39.7454,37.035,Turkey
Tobruk,32.08,23.96,Libya
St. Petersburg,27.793,-82.6652, United States
Graz,47.0778,15.41,Austria
Kindu,-2.9639,25.91,Congo (Kinshasa)
Lubbock,33.5642,-101.8871, United States
Aqtobe,50.28,57.17,Kazakhstan
Parana,-31.7333,-60.5333,Argentina
Az Zubayr,30.3892,47.708,Iraq
Peoria,40.7521,-89.6155, United States
Hotan,37.0997,79.9269,China
Cabo Frio,-22.89,-42.04,Brazil
Balikesir,39.6504,27.89,Turkey
Zhuanghe,39.6823,122.9619,China
Sincelejo,9.2904,-75.38,Colombia
Petrolina,-9.38,-40.51,Brazil
Acarigua,9.5804,-69.2,Venezuela
Wollongong,-34.4154,150.89,Australia
Uberaba,-19.78,-47.95,Brazil
Myrtle Beach,33.7096,-78.8842, United States
Laredo,27.5617,-99.4874, United States
Sakarya,40.8,30.415,Turkey
Konibodom,40.2922,70.4272,Tajikistan
Salem,44.9232,-123.0245, United States
Kunduz,36.728,68.8725,Afghanistan
Tampere,61.5,23.75,Finland
Columbus,32.51,-84.8771, United States
Popayan,2.42,-76.61,Colombia
Nonthaburi,13.8337,100.4833,Thailand
Al Mukalla,14.5412,49.1259,Yemen
Rio Branco,-9.9666,-67.8,Brazil
Etawah,26.7855,79.015,India
Mendefera,14.886,38.8163,Eritrea
Cascavel,-24.9596,-53.46,Brazil
Ondo,7.0904,4.84,Nigeria
Chimoio,-19.12,33.47,Mozambique
Ensenada,31.87,-116.62,Mexico
Dzerzhinsk,56.2504,43.46,Russia
Ap Da Loi,11.9304,108.42,Vietnam
Montgomery,32.3473,-86.2666, United States
Damaturu,11.749,11.966,Nigeria
Raichur,16.2104,77.355,India
Daloa,6.89,-6.45,Côte D’Ivoire
Rivne,50.6166,26.2528,Ukraine
Turpan,42.9354,89.165,China
Freiburg im Breisgau,48.0004,7.8699,Germany
Poza Rica de Hidalgo,20.5504,-97.47,Mexico
Chuxiong,25.0364,101.5456,China
Cirebon,-6.7333,108.5666,Indonesia
Fort-de-France,14.6104,-61.08,Martinique
Pathankot,32.2703,75.72,India
Chandler,33.2827,-111.8517, United States
Anchorage,61.1508,-149.1091, United States
Tallahassee,30.4551,-84.2527, United States
Chirala,15.8604,80.34,India
Buenaventura,3.8724,-77.0505,Colombia
El Fasher,13.63,25.35,Sudan
Dire Dawa,9.59,41.86,Ethiopia
Suihua,46.6304,126.98,China
Messina,38.2005,15.55,Italy
Borujerd,33.92,48.8,Iran
Linhai,28.85,121.12,China
Khon Kaen,16.42,102.83,Thailand
Morogoro,-6.82,37.66,Tanzania
Governador Valadares,-18.87,-41.97,Brazil
Sonipat,29,77.02,India
Santa Clara,22.4,-79.9667,Cuba
Iwo,7.63,4.18,Nigeria
Concord,35.3932,-80.6363, United States
Zumpango,19.8104,-99.11,Mexico
Laiyang,36.9684,120.7084,China
Jaffna,9.675,80.005,Sri Lanka
Arua,3.0204,30.9,Uganda
Quang Ngai,15.1504,108.83,Vietnam
Caserta,41.06,14.3374,Italy
Como,45.81,9.08,Italy
Nis,43.3304,21.9,Serbia
Lucerne,47.0504,8.28,Switzerland
Kashan,33.9804,51.58,Iran
Scottsdale,33.6872,-111.8651, United States
Varzea Grande,-15.65,-56.14,Brazil
Kropyvnyts'kyy,48.5041,32.2603,Ukraine
Melun,48.5333,2.6666,France
Mutare,-18.97,32.65,Zimbabwe
Santa Maria,-29.6833,-53.8,Brazil
Hafar al Batin,28.4337,45.9601,Saudi Arabia
Los Mochis,25.79,-109,Mexico
Jalal-Abad,40.9429,73.0025,Kyrgyzstan
Vung Tau,10.3554,107.085,Vietnam
Fukui,36.0704,136.22,Japan
Singkawang,0.912,108.9655,Indonesia
Miskolc,48.1004,20.78,Hungary
Killeen,31.0755,-97.7297, United States
Plymouth,50.3854,-4.16,United Kingdom
Udon Thani,17.4048,102.7893,Thailand
Kattaqo`rg`on,39.9007,66.2608,Uzbekistan
Orsk,51.21,58.6273,Russia
San Bernardo,-33.6,-70.7,Chile
Glendale,33.5797,-112.2258, United States
Oruro,-17.98,-67.13,Bolivia
Bratsk,56.157,101.615,Russia
Wilmington,34.2101,-77.886, United States
Matadi,-5.8166,13.45,Congo (Kinshasa)
Mirzapur,25.1454,82.57,India
Shinozaki,33.9654,130.9454,Japan
Rzeszow,50.0705,22,Poland
Juliaca,-15.5,-70.14,Peru
Qinzhou,21.9504,108.62,China
Winter Haven,28.0118,-81.7017, United States
Nizhnevartovsk,60.935,76.58,Russia
Ternopil,49.536,25.5821,Ukraine
Braunschweig,52.25,10.5,Germany
Norfolk,36.8945,-76.259, United States
Hebi,35.9504,114.22,China
Thu Dau Mot,10.9691,106.6527,Vietnam
Kunsan,35.9818,126.716,South Korea
Jessore,23.1704,89.2,Bangladesh
Manisa,38.6304,27.44,Turkey
Wonju,37.3551,127.9396,South Korea
Nam Dinh,20.42,106.2,Vietnam
Angarsk,52.56,103.92,Russia
North Las Vegas,36.288,-115.0901, United States
Hapur,28.7437,77.7628,India
Gilbert,33.3103,-111.7463, United States
Le Havre,49.505,0.105,France
Caruaru,-8.28,-35.98,Brazil
Neuquen,-38.95,-68.06,Argentina
Ulanhot,46.08,122.08,China
Novorossiysk,44.73,37.7699,Russia
Tehuacan,18.4504,-97.38,Mexico
Atlantic City,39.3797,-74.4527, United States
Ivano-Frankivs'k,48.9348,24.7094,Ukraine
Barnstable Town,41.6722,-70.3599, United States
Fuzhou,27.9703,116.36,China
San Pablo,14.0696,121.3226,Philippines
Chesapeake,36.6778,-76.3024, United States
Irving,32.8584,-96.9702, United States
Hialeah,25.8696,-80.3046, United States
Hachimancho,40.51,141.54,Japan
Garland,32.91,-96.6305, United States
Furth,49.47,11,Germany
As Sib,23.6802,58.1825,Oman
Arhus,56.1572,10.2107,Denmark
Sato,33.1631,129.7177,Japan
Al Jubayl,27.0046,49.646,Saudi Arabia
Taiping,4.865,100.72,Malaysia
Pathein,16.7704,94.75,Burma
Tegal,-6.8696,109.12,Indonesia
Yidu,30.3004,111.5,China
Sylhet,24.9036,91.8736,Bangladesh
Qostanay,53.2209,63.6283,Kazakhstan
Kosice,48.7304,21.25,Slovakia
Monclova,26.9,-101.42,Mexico
Tours,47.3804,0.6999,France
Dera Ghazi Khan,30.0604,70.6351,Pakistan
Springs,-26.2696,28.43,South Africa
Luton,51.8804,-0.42,United Kingdom
Sahiwal,30.6717,73.1118,Pakistan
Oviedo,43.3505,-5.83,Spain
Yakutsk,62.035,129.735,Russia
Lubeck,53.8704,10.67,Germany
Jizzax,40.1004,67.83,Uzbekistan
Palmas,-10.2377,-48.2878,Brazil
Boa Vista,2.8161,-60.666,Brazil
Kediri,-7.7896,112,Indonesia
McKinney,33.2016,-96.6669, United States
Fremont,37.5265,-121.9852, United States
Kismaayo,-0.3566,42.5183,Somalia
Ibb,13.9759,44.1709,Yemen
Turkmenabat,39.11,63.58,Turkmenistan
Punto Fijo,11.72,-70.21,Venezuela
Porbandar,21.67,69.67,India
Visalia,36.3276,-119.3269, United States
Zacatecas,22.7704,-102.58,Mexico
Santa Ana,13.9946,-89.5598,El Salvador
Santa Ana de Yacuma,-13.76,-65.58,Bolivia
Singaraja,-8.1152,115.0944,Indonesia
Nizhnekamsk,55.6404,51.82,Russia
York,39.9651,-76.7315, United States
Zabol,31.0215,61.4815,Iran
Rancagua,-34.17,-70.74,Chile
Clermont-Ferrand,45.78,3.08,France
Kennewick,46.1979,-119.1732, United States
Kremenchuk,49.0835,33.4296,Ukraine
Maradi,13.4916,7.0964,Niger
Ploiesti,44.9469,26.0365,Romania
Nakhon Si Thammarat,8.4,99.97,Thailand
Hetauda,27.4167,85.0334,Nepal
Evansville,37.9881,-87.5341, United States
Saidpur,25.8004,89,Bangladesh
Paradise,36.0807,-115.1369, United States
Al Fallujah,33.3477,43.7773,Iraq
Xiulin,29.7004,112.4,China
Ngaoundere,7.3204,13.58,Cameroon
Debrecen,47.5305,21.63,Hungary
Osnabruck,52.2804,8.05,Germany
Nashua,42.7491,-71.491, United States
North Hempstead,40.7912,-73.6688, United States
Syktyvkar,61.66,50.82,Russia
Zhangye,38.93,100.45,China
Ilheus,-14.78,-39.05,Brazil
Santarem,-2.4333,-54.7,Brazil
Zinder,13.8,8.9833,Niger
Nukus,42.47,59.615,Uzbekistan
Magdeburg,52.1304,11.62,Germany
Tlemcen,34.8904,-1.32,Algeria
Noginsk,55.8704,38.48,Russia
Noginsk,64.4833,91.2333,Russia
Arlington,38.8786,-77.1011, United States
Nawabshah,26.2454,68.4,Pakistan
Bharatpur,27.2504,77.5,India
Uitenhage,-33.7596,25.39,South Africa
Beipiao,41.81,120.76,China
Errachidia,31.9404,-4.45,Morocco
Petropavl,54.88,69.22,Kazakhstan
Miri,4.3999,113.9845,Malaysia
Brownsville,25.998,-97.4565, United States
Iquique,-20.25,-70.13,Chile
Hyesan,41.3927,128.1927,"Korea, North"
Puducherry,11.935,79.83,India
Quillacollo,-17.4,-66.28,Bolivia
Staryy Oskol,51.3004,37.84,Russia
Liaocheng,36.4304,115.97,China
Gusau,12.1704,6.66,Nigeria
Tanjungpinang,0.9168,104.4714,Indonesia
Chon Buri,13.4004,101,Thailand
Chuncheon,37.8747,127.7342,South Korea
Monywa,22.105,95.15,Burma
Sabzevar,36.22,57.63,Iran
Groznyy,43.3187,45.6987,Russia
Kolpino,59.73,30.65,Russia
Sikasso,11.3204,-5.68,Mali
Mubi,10.2703,13.27,Nigeria
Novi Sad,45.2504,19.8499,Serbia
Juazeiro do Norte,-7.21,-39.32,Brazil
Nyanza,-2.3496,29.74,Rwanda
Skikda,36.8804,6.9,Algeria
Karnal,29.6804,76.97,India
Bac Lieu,9.2804,105.72,Vietnam
Minamiozuma,36.2404,137.97,Japan
Tanga,-5.07,39.09,Tanzania
Cidade de Nacala,-14.5186,40.715,Mozambique
Vitoria-Gasteiz,42.85,-2.67,Spain
Nagercoil,8.1804,77.43,India
Haeju,38.0394,125.7144,"Korea, North"
Adiyaman,37.7704,38.2799,Turkey
Okara,30.8104,73.45,Pakistan
Narayanganj,23.6204,90.5,Bangladesh
Colima,19.23,-103.72,Mexico
Appleton,44.2774,-88.3894, United States
Hancheng,35.4704,110.43,China
`Ar`ar,30.99,41.0207,Saudi Arabia
Itabuna,-14.7896,-39.28,Brazil
Banja Luka,44.7804,17.18,Bosnia And Herzegovina
Gueckedou,8.554,-10.151,Guinea
Neyshabur,36.22,58.82,Iran
Amol,36.4713,52.3633,Iran
Tapachula,14.9,-92.27,Mexico
Formosa,-26.1728,-58.1828,Argentina
Gulfport,30.4271,-89.0703, United States
Shakhty,47.7204,40.27,Russia
Blagoveshchensk,50.2666,127.5333,Russia
Cordoba,18.9204,-96.92,Mexico
Babruysk,53.1266,29.1928,Belarus
Cabanatuan City,15.5021,120.9617,Philippines
Polokwane,-23.89,29.45,South Africa
Lhasa,29.645,91.1,China
Tanjore,10.7704,79.15,India
Gabes,33.9004,10.1,Tunisia
Baghlan,36.1393,68.6993,Afghanistan
Thousand Oaks,34.1914,-118.8755, United States
Velikiy Novgorod,58.5,31.33,Russia
Wuhai,39.6647,106.8122,China
Bertoua,4.5804,13.68,Cameroon
Imperatriz,-5.52,-47.49,Brazil
Potsdam,52.4004,13.07,Germany
San Pedro de Macoris,18.4504,-69.3,Dominican Republic
Mallawi,27.7304,30.84,Egypt
Sibolga,1.75,98.8,Indonesia
Orleans,47.9004,1.9,France
Denov,38.2772,67.8872,Uzbekistan
Avondale,33.3858,-112.3236, United States
San Bernardino,34.1417,-117.2945, United States
Gilgit,35.9171,74.3,Pakistan
Rybinsk,58.0503,38.82,Russia
Groningen,53.2204,6.58,Netherlands
Bremerton,47.5436,-122.7121, United States
Roanoke,37.2785,-79.958, United States
Trieste,45.6504,13.8,Italy
Kielce,50.8904,20.66,Poland
Mulhouse,47.7504,7.35,France
Biysk,52.5341,85.18,Russia
Hickory,35.7426,-81.323, United States
Owerri,5.493,7.026,Nigeria
Zamora,19.9804,-102.28,Mexico
Navoiy,40.1104,65.355,Uzbekistan
Split,43.5204,16.47,Croatia
Kalamazoo,42.2749,-85.5882, United States
Oradea,47.05,21.92,Romania
Luts'k,50.7472,25.3334,Ukraine
Portoviejo,-1.06,-80.46,Ecuador
Bergen,60.391,5.3245,Norway
Braila,45.292,27.969,Romania
Tacoma,47.2431,-122.4531, United States
Nanping,26.6304,118.17,China
Machala,-3.26,-79.96,Ecuador
Limbe,4.0304,9.19,Cameroon
Marilia,-22.21,-49.95,Brazil
Fontana,34.0968,-117.4599, United States
Kirikkale,39.8504,33.53,Turkey
Abha,18.2301,42.5001,Saudi Arabia
San-Pedro,4.7704,-6.64,Côte D’Ivoire
Toamasina,-18.1818,49.405,Madagascar
Pali,25.7904,73.3299,India
Thai Binh,20.4503,106.333,Vietnam
Oral,51.2711,51.335,Kazakhstan
Presidente Prudente,-22.12,-51.39,Brazil
Sanming,26.23,117.58,China
Rennes,48.1,-1.67,France
Ijebu-Ode,6.8204,3.92,Nigeria
Tema,5.6404,0.01,Ghana
Santander,43.3805,-3.8,Spain
Green Bay,44.515,-87.9896, United States
Sidi Bel Abbes,35.1903,-0.64,Algeria
Bojnurd,37.47,57.32,Iran
La Romana,18.417,-68.9666,Dominican Republic
Hajjah,15.6917,43.6021,Yemen
Waitakere,-36.8524,174.5543,New Zealand
Lobito,-12.37,13.5412,Angola
College Station,30.5852,-96.296, United States
Pingliang,35.5304,106.6801,China
Moreno Valley,33.9244,-117.2045, United States
Laoag,18.1988,120.5936,Philippines
Bahir Dar,11.6001,37.3833,Ethiopia
Beersheba,31.25,34.83,Israel
Korla,41.73,86.15,China
Salzburg,47.8105,13.04,Austria
Kalemie,-5.9333,29.2,Congo (Kinshasa)
Amarillo,35.1989,-101.831, United States
Portland,43.6773,-70.2715, United States
Northcote,-36.7913,174.7758,New Zealand
Jiutai,44.1447,125.8443,China
Campeche,19.83,-90.5,Mexico
Puqi,29.7204,113.88,China
Sao Carlos,-22.02,-47.89,Brazil
Fargo,46.8653,-96.8292, United States
Funchal,32.65,-16.88,Portugal
Criciuma,-28.68,-49.39,Brazil
Lampang,18.2916,99.4813,Thailand
Santa Barbara,34.4285,-119.7202, United States
Huntington,40.8522,-73.3824, United States
Colon,9.365,-79.875,Panama
Norwich,41.5495,-72.0882, United States
Salalah,17.0255,54.0852,Oman
Sibu,2.303,111.843,Malaysia
Las Tunas,20.9601,-76.9544,Cuba
Lianzhou,24.7815,112.3825,China
Guaratingueta,-22.82,-45.19,Brazil
Pisa,43.7205,10.4,Italy
Agartala,23.8354,91.28,India
Erfurt,50.9701,11.03,Germany
Timon,-5.115,-42.845,Brazil
Edea,3.8005,10.12,Cameroon
Rostock,54.0704,12.15,Germany
Glendale,34.1818,-118.2468, United States
Ongole,15.5604,80.05,India
Djougou,9.7004,1.68,Benin
Khowy,38.5304,44.97,Iran
Mossoro,-5.19,-37.34,Brazil
Barisal,22.7004,90.375,Bangladesh
Biskra,34.86,5.73,Algeria
Angren,41.0304,70.1549,Uzbekistan
Taranto,40.5084,17.23,Italy
Yonkers,40.9466,-73.8674, United States
Pskov,57.83,28.3299,Russia
Al Khums,32.6604,14.26,Libya
Minatitlan,17.9805,-94.53,Mexico
Huntington Beach,33.696,-118.0025, United States
Chiniot,31.72,72.98,Pakistan
Pingzhen,24.9439,121.2161,Taiwan
San Miguel,13.4833,-88.1833,El Salvador
Lashkar Gah,31.583,64.36,Afghanistan
Dasoguz,41.84,59.965,Turkmenistan
Sete Lagoas,-19.4496,-44.25,Brazil
Gedaref,14.04,35.38,Sudan
Cartagena,37.6004,-0.98,Spain
Puri,19.8204,85.9,India
Aurora,41.7637,-88.2901, United States
Dindigul,10.38,78,India
Haldia,22.0257,88.0583,India
Moratuwa,6.7804,79.88,Sri Lanka
Rivera,-30.8996,-55.56,Uruguay
Pokhara,28.264,83.972,Nepal
Zhubei,24.8333,121.0119,Taiwan
Bergamo,45.7004,9.67,Italy
Nema,16.6171,-7.25,Mauritania
Az Zawiyah,32.7604,12.72,Libya
Kasama,-10.1996,31.1799,Zambia
Maimanah,35.9302,64.7701,Afghanistan
Gainesville,29.6804,-82.3458, United States
Bacau,46.5784,26.9196,Romania
Taza,34.2204,-4.02,Morocco
Batu Pahat,1.8504,102.9333,Malaysia
Balakovo,52.03,47.8,Russia
Armavir,45.0004,41.13,Russia
Rosetta,31.4604,30.39,Egypt
Bila Tserkva,49.7743,30.1309,Ukraine
Saskatoon,52.17,-106.67,Canada
Aydin,37.85,27.85,Turkey
Huangyan,28.65,121.25,China
Bulandshahr,28.4104,77.8484,India
Ashino,42.975,144.3747,Japan
Purnea,25.7854,87.48,India
Martapura,-3.4135,114.8365,Indonesia
Gemena,3.26,19.77,Congo (Kinshasa)
Thanh Hoa,19.82,105.8,Vietnam
Mbanza-Ngungu,-5.2496,14.86,Congo (Kinshasa)
Kofu,35.6504,138.5833,Japan
Salamanca,20.5704,-101.2,Mexico
Talca,-35.455,-71.67,Chile
Proddatur,14.7504,78.57,India
El Tigre,8.8903,-64.26,Venezuela
Gurgaon,28.45,77.02,India
Burhanpur,21.3004,76.13,India
Kure,34.251,132.5656,Japan
Cartago,9.87,-83.93,Costa Rica
Porlamar,10.9604,-63.85,Venezuela
Reims,49.2504,4.03,France
Olympia,47.0417,-122.8959, United States
Engel's,51.5004,46.12,Russia
North Port,27.0577,-82.1975, United States
Burgas,42.5146,27.4746,Bulgaria
Ghandinagar,23.3004,72.6399,India
Spring Valley,36.0987,-115.2619, United States
Iskandar,41.5507,69.6807,Uzbekistan
Naka,37.4504,138.86,Japan
Coro,11.42,-69.68,Venezuela
Brikama,13.2804,-16.6599,"Gambia, The"
Severodvinsk,64.57,39.83,Russia
Al Jahra',29.3375,47.6581,Kuwait
Huntington,38.4109,-82.4344, United States
Deltona,28.905,-81.2136, United States
Bongor,10.2859,15.3872,Chad
Sunrise Manor,36.1785,-115.049, United States
Grand Prairie,32.687,-97.0209, United States
Divinopolis,-20.1495,-44.9,Brazil
Salinas,36.6884,-121.6317, United States
Tarakan,3.3,117.633,Indonesia
Machilipatnam,16.2004,81.18,India
Oxford,51.7704,-1.25,United Kingdom
Ciudad Madero,22.3189,-97.8361,Mexico
Bayamo,20.3795,-76.6433,Cuba
Klaipeda,55.7204,21.1199,Lithuania
Dunhua,43.3505,128.22,China
Ziguinchor,12.59,-16.29,Senegal
Waterbury,41.5583,-73.0361, United States
Barrancabermeja,7.09,-73.85,Colombia
Zlatoust,55.175,59.65,Russia
Muar,2.0337,102.5666,Malaysia
Overland Park,38.887,-94.687, United States
Dhamar,14.5575,44.3875,Yemen
Valera,9.32,-70.62,Venezuela
Bhiwani,28.81,76.125,India
Norwich,52.6304,1.3,United Kingdom
Butuan,8.9495,125.5436,Philippines
Caen,49.1838,-0.35,France
Saint-Denis,-20.8789,55.4481,Reunion
Saddiqabad,28.3006,70.1302,Pakistan
La Paz,24.14,-110.32,Mexico
Son Tay,21.1382,105.505,Vietnam
Aberdeen,57.1704,-2.08,United Kingdom
Syzran',53.17,48.48,Russia
Dong Hoi,17.4833,106.6,Vietnam
Mwene-Ditu,-7,23.44,Congo (Kinshasa)
Kabwe,-14.44,28.45,Zambia
Quelimane,-17.88,36.89,Mozambique
Cork,51.8986,-8.4958,Ireland
Parakou,9.34,2.62,Benin
San Fernando del Valle de Catamarca,-28.47,-65.78,Argentina
Nandyal,15.5204,78.48,India
Waco,31.5597,-97.1882, United States
Angers,47.48,-0.53,France
Mostaganem,35.9404,0.09,Algeria
Erie,42.1168,-80.0733, United States
Paarl,-33.6996,18.96,South Africa
Rio Grande,-32.0495,-52.12,Brazil
Szeged,46.2504,20.15,Hungary
Arapiraca,-9.75,-36.67,Brazil
Ternate,0.793,127.363,Indonesia
Petropavlovsk-Kamchatskiy,53.062,158.623,Russia
Kimch'aek-si,40.6723,129.2027,"Korea, North"
Puerto Vallarta,20.6771,-105.245,Mexico
Gibraltar,36.1324,-5.3781,Gibraltar
Cachoeiro de Itapemirim,-20.85,-41.13,Brazil
Pinar del Rio,22.4175,-83.6981,Cuba
Manp'o,41.1454,126.2958,"Korea, North"
Olsztyn,53.8,20.48,Poland
San Cristobal,16.75,-92.6334,Mexico
Cienfuegos,22.1444,-80.4403,Cuba
Shendi,16.6805,33.42,Sudan
Pecs,46.0804,18.22,Hungary
Cedar Rapids,41.9667,-91.6781, United States
Marbella,36.5166,-4.8833,Spain
Madiun,-7.6346,111.515,Indonesia
Ed Damazin,11.7704,34.35,Sudan
Arica,-18.5,-70.29,Chile
Hagerstown,39.6402,-77.7217, United States
Jamaame,0.0722,42.7506,Somalia
Tempe,33.3881,-111.9318, United States
Kutahya,39.42,29.93,Turkey
Yei,4.0904,30.68,South Sudan
Mainz,49.9825,8.2732,Germany
Ruse,43.8537,25.9733,Bulgaria
Tiaret,35.3804,1.32,Algeria
Fianarantsoa,-21.4333,47.0833,Madagascar
Kramators'k,48.7194,37.5344,Ukraine
Kutaisi,42.25,42.73,Georgia
Tarlac City,15.4838,120.5834,Philippines
Dese,11.13,39.63,Ethiopia
Corum,40.52,34.95,Turkey
Gweru,-19.45,29.82,Zimbabwe
Mataro,41.54,2.45,Spain
Spartanburg,34.9437,-81.9256, United States
Manta,-0.98,-80.73,Ecuador
Bhusaval,21.02,75.83,India
Shibin al Kawm,30.592,30.9,Egypt
Clarksville,36.5696,-87.3428, United States
Atyrau,47.1127,51.92,Kazakhstan
Pinrang,-3.7857,119.6522,Indonesia
Kamensk-Ural'skiy,56.4205,61.935,Russia
Chilpancingo,17.55,-99.5,Mexico
Biratnagar,26.4837,87.2833,Nepal
Bahraigh,27.6204,81.6699,India
Barrie,44.3838,-79.7,Canada
Chingola,-12.5396,27.85,Zambia
Tonk,26.1505,75.79,India
Probolinggo,-7.7496,113.15,Indonesia
Sirsa,29.4904,75.03,India
Anda,46.4,125.32,China
Gastonia,35.2494,-81.1853, United States
Hinthada,17.6483,95.4679,Burma
Gangneung,37.7559,128.8962,South Korea
Castellon de la Plana,39.9704,-0.05,Spain
Funtua,11.5204,7.32,Nigeria
El Jadid,33.2604,-8.51,Morocco
Reggio di Calabria,38.115,15.6414,Italy
Zuwarah,32.9344,12.0791,Libya
Lorain,41.4409,-82.184, United States
Sioux Falls,43.5397,-96.7321, United States
Rio Claro,-22.41,-47.56,Brazil
Tangail,24.25,89.92,Bangladesh
Obuase,6.1904,-1.66,Ghana
Fort Lauderdale,26.1412,-80.1464, United States
Zhaodong,46.0804,125.98,China
Balkh,36.7501,66.8997,Afghanistan
Potosi,-19.5696,-65.75,Bolivia
Phan Rang-Thap Cham,11.567,108.9833,Vietnam
Varamin,35.3166,51.6466,Iran
Passo Fundo,-28.25,-52.42,Brazil
Almeria,36.8303,-2.43,Spain
Newport News,37.1051,-76.5185, United States
Vizianagaram,18.1204,83.5,India
Sittwe,20.14,92.88,Burma
Klerksdorp,-26.88,26.62,South Africa
Si Racha,13.159,100.9287,Thailand
Mary,37.6,61.8333,Turkmenistan
Al `Arish,31.1249,33.8006,Egypt
Boma,-5.83,13.05,Congo (Kinshasa)
Sangolqui,-0.31,-78.46,Ecuador
Heroica Nogales,31.305,-110.945,Mexico
High Point,35.9905,-79.9937, United States
Teziutlan,19.8204,-97.36,Mexico
Korhogo,9.46,-5.64,Côte D’Ivoire
Termiz,37.2329,67.2729,Uzbekistan
Ar Raqqah,35.9304,39.02,Syria
Santa Cruz,36.9789,-122.0346, United States
El Oued,33.3704,6.86,Algeria
Rancho Cucamonga,34.1248,-117.5666, United States
Treviso,45.67,12.24,Italy
Frisco,33.1554,-96.8217, United States
Danbury,41.4016,-73.471, United States
Vellore,12.9204,79.15,India
Kadugli,11.01,29.7,Sudan
Hemet,33.7341,-116.9969, United States
Nyiregyhaza,47.9653,21.7187,Hungary
Alleppey,9.5004,76.37,India
Malayer,34.32,48.85,Iran
Letpandan,17.7819,95.7415,Burma
Yuzhno-Sakhalinsk,46.965,142.74,Russia
Ouargla,31.97,5.34,Algeria
Oceanside,33.2247,-117.3083, United States
Regina,50.45,-104.617,Canada
Salatiga,-7.3095,110.4901,Indonesia
Turku,60.4539,22.255,Finland
Ontario,34.0393,-117.6064, United States
Vancouver,45.6367,-122.597, United States
Saveh,35.0218,50.3314,Iran
Modena,44.65,10.92,Italy
Les Cayes,18.2004,-73.75,Haiti
Baicheng,23.8997,106.6133,China
Entebbe,0.0604,32.46,Uganda
Yangmei,24.9167,121.15,Taiwan
Taitung,22.7554,121.14,Taiwan
Sirjan,29.47,55.73,Iran
Harar,9.32,42.15,Ethiopia
As Samawah,31.3099,45.2803,Iraq
Obiraki,40.57,140.47,Japan
Takaoka,42.6504,141.55,Japan
Puerto Montt,-41.47,-72.93,Chile
George,-33.95,22.45,South Africa
Bo,7.97,-11.74,Sierra Leone
Garden Grove,33.7787,-117.9601, United States
Puerto Cabello,10.4704,-68.17,Venezuela
Sidon,33.563,35.3688,Lebanon
Beppucho,42.9304,143.17,Japan
Nampa,43.5843,-116.5628, United States
Bida,9.0804,6.01,Nigeria
Vallejo,38.1133,-122.2359, United States
Shimla,31.1,77.1666,India
Stavanger,58.97,5.68,Norway
Esmeraldas,0.9304,-79.67,Ecuador
Bata,1.87,9.77,Equatorial Guinea
Ulm,48.4004,10,Germany
Ha Long,20.9604,107.1,Vietnam
Lishui,28.4504,119.9,China
Riobamba,-1.67,-78.65,Ecuador
Banyuwangi,-8.195,114.3696,Indonesia
Isparta,37.77,30.53,Turkey
Weinan,34.5004,109.5001,China
Bade,24.9575,121.2989,Taiwan
Nova Friburgo,-22.26,-42.54,Brazil
Elk Grove,38.416,-121.384, United States
Tebessa,35.4104,8.12,Algeria
Kragujevac,44.02,20.92,Serbia
Pitesti,44.8563,24.8758,Romania
Rijeka,45.33,14.45,Croatia
Djelfa,34.68,3.25,Algeria
Pembroke Pines,26.0128,-80.3382, United States
Temirtau,50.065,72.965,Kazakhstan
Uvira,-3.37,29.14,Congo (Kinshasa)
Bayamon,18.3793,-66.1635,Puerto Rico
Burgos,42.3504,-3.68,Spain
Takaoka,36.67,137,Japan
Aracatuba,-21.21,-50.45,Brazil
Fuyang,32.9004,115.82,China
Cacak,43.8897,20.3301,Serbia
Dijon,47.3304,5.03,France
Kluang,2.0383,103.3179,Malaysia
Nimes,43.8304,4.35,France
Al Marj,32.5005,20.83,Libya
Barra Mansa,-22.56,-44.17,Brazil
Jayapura,-2.533,140.7,Indonesia
Sarh,9.15,18.39,Chad
Medinipur,22.3304,87.15,India
Arad,46.17,21.32,Romania
Bandar-e Bushehr,28.92,50.83,Iran
Sonsonate,13.72,-89.73,El Salvador
Baranavichy,53.1368,26.0134,Belarus
Madent Atbara,17.71,33.98,Sudan
Wurzburg,49.8004,9.95,Germany
Hindupur,13.7804,77.49,India
Medford,42.3372,-122.8537, United States
Peoria,33.7844,-112.299, United States
N'Zerekore,7.76,-8.83,Guinea
Baramula,34.2004,74.35,India
Jamalpur,24.9004,89.95,Bangladesh
Chirchiq,41.455,69.56,Uzbekistan
Corona,33.862,-117.5641, United States
Berezniki,59.42,56.76,Russia
Volgodonsk,47.51,42.1599,Russia
Ormoc,11.0643,124.6075,Philippines
Miass,54.9954,60.0949,Russia
Oldenburg,53.13,8.22,Germany
Abakan,53.7037,91.445,Russia
Murfreesboro,35.8493,-86.4117, United States
Banha,30.4667,31.1833,Egypt
Novocherkassk,47.42,40.08,Russia
Gonaives,19.4504,-72.6832,Haiti
Marysville,48.081,-122.1558, United States
Fatehpur,25.8804,80.8,India
Dibrugarh,27.4833,94.9,India
Ayacucho,-13.175,-74.22,Peru
Maraba,-5.35,-49.116,Brazil
Ocumare del Tuy,10.12,-66.78,Venezuela
San Fernando,10.2805,-61.4594,Trinidad And Tobago
Parma,44.8104,10.32,Italy
Rustenburg,-25.65,27.24,South Africa
Cary,35.7817,-78.8175, United States
Noril'sk,69.34,88.225,Russia
Carpina,-7.84,-35.26,Brazil
Tulua,4.0904,-76.21,Colombia
Livingstone,-17.86,25.86,Zambia
Ha Tinh,18.3338,105.9,Vietnam
Kendari,-3.9553,122.5973,Indonesia
Kimberley,-28.7468,24.77,South Africa
Elbasan,41.1215,20.0838,Albania
Nantou,23.9167,120.6833,Taiwan
Fredericksburg,38.2992,-77.4872, United States
Serang,-6.11,106.1496,Indonesia
Ocala,29.178,-82.1511, United States
Lajes,-27.8096,-50.31,Brazil
Leon,12.4356,-86.8794,Nicaragua
Sitalpur,27.63,80.75,India
Zenica,44.22,17.92,Bosnia And Herzegovina
Regensburg,49.0204,12.12,Germany
Kigoma,-4.8796,29.61,Tanzania
Plzen,49.7404,13.36,Czech Republic
Phitsanulok,16.8283,100.2729,Thailand
Myingyan,21.4618,95.3914,Burma
Dagupan City,16.0479,120.3408,Philippines
Patra,38.23,21.73,Greece
Ingolstadt,48.7704,11.45,Germany
La Vega,19.2166,-70.5166,Dominican Republic
Mostar,43.3505,17.82,Bosnia And Herzegovina
Navsari,20.8504,72.92,India
El Geneina,13.45,22.44,Sudan
Tartus,34.8846,35.8866,Syria
Simao,22.7807,100.9782,China
La Rioja,-29.41,-66.85,Argentina
Lecce,40.3604,18.15,Italy
Mahabad,36.7704,45.72,Iran
Salamanca,40.9704,-5.67,Spain
Dourados,-22.23,-54.81,Brazil
Ash Shatrah,31.4175,46.1772,Iraq
Settat,33.0104,-7.62,Morocco
Budaun,28.03,79.09,India
Tunja,5.5504,-73.37,Colombia
Coquimbo,-29.9529,-71.3436,Chile
Rubtsovsk,51.52,81.21,Russia
Bhisho,-32.87,27.39,South Africa
Geelong,-38.1675,144.3956,Australia
Ra's al Khaymah,25.7915,55.9428,United Arab Emirates
Sullana,-4.8896,-80.68,Peru
Malakal,9.5369,31.656,South Sudan
Manchester,42.9848,-71.4447, United States
Bumba,2.19,22.46,Congo (Kinshasa)
Hayward,37.6328,-122.0772, United States
Xiaoganzhan,30.9204,113.9,China
Chapeco,-27.1,-52.64,Brazil
Muskegon,43.2281,-86.2562, United States
Taunggyi,20.782,97.038,Burma
Ciudad Lazaro Cardenas,17.9587,-102.2,Mexico
Alexandria,38.8185,-77.0861, United States
Gonbad-e Kavus,37.2518,55.1715,Iran
Salavat,53.3703,55.93,Russia
Valdivia,-39.795,-73.245,Chile
Pagadian,7.853,123.507,Philippines
Nakhodka,42.8374,132.8874,Russia
Nakhodka,67.7504,77.52,Russia
Springfield,39.771,-89.6537, United States
Lafayette,40.399,-86.8593, United States
Tarija,-21.5167,-64.75,Bolivia
Zarzis,33.5104,11.1,Tunisia
Punta del Este,-34.97,-54.95,Uruguay
York,53.9704,-1.08,United Kingdom
Cuddalore,11.7204,79.77,India
Rio Largo,-9.48,-35.84,Brazil
Samarra',34.194,43.875,Iraq
Maykop,44.61,40.12,Russia
Abeche,13.84,20.83,Chad
Barreiras,-12.14,-45,Brazil
Odense,55.4004,10.3833,Denmark
Huanuco,-9.92,-76.24,Peru
Haripur,31.52,75.98,India
Albacete,39.0003,-1.87,Spain
Melitopol',46.8378,35.3775,Ukraine
Sobral,-3.69,-40.35,Brazil
Port Arthur,29.8554,-93.9264, United States
Sudbury,46.5,-80.9666,Canada
Surat Thani,9.1501,99.3401,Thailand
Palmdale,34.5944,-118.1057, United States
Al Ghardaqah,27.23,33.83,Egypt
Isiro,2.76,27.62,Congo (Kinshasa)
Puerto Princesa,9.7543,118.7444,Philippines
Kashmar,35.1814,58.4515,Iran
Ussuriysk,43.8,132.02,Russia
Rust'avi,41.5704,45.05,Georgia
Tiraspol,46.8531,29.64,Moldova
Afyonkarahisar,38.7504,30.55,Turkey
Zonguldak,41.4304,31.78,Turkey
Matsue,35.467,133.0666,Japan
Champaign,40.1144,-88.2735, United States
Moundou,8.55,16.09,Chad
Dali,25.7,100.18,China
Koforidua,6.0904,-0.26,Ghana
Istaravshan,39.9219,69.0015,Tajikistan
Livorno,43.5511,10.3023,Italy
Gainesville,34.2902,-83.8303, United States
Gonder,12.61,37.46,Ethiopia
Ciudad del Carmen,18.6537,-91.8245,Mexico
Yulinshi,38.2833,109.7333,China
Enterprise,36.0163,-115.2207, United States
Shkoder,42.0685,19.5188,Albania
Muroran,42.35,140.98,Japan
Sibiu,45.7971,24.1371,Romania
Batumi,41.6,41.63,Georgia
Horad Barysaw,54.226,28.4922,Belarus
Kyongju,35.8428,129.2117,South Korea
Innsbruck,47.2804,11.41,Austria
Foggia,41.4605,15.56,Italy
Ordu,41.0004,37.8699,Turkey
Conjeeveram,12.8337,79.7167,India
Frederick,39.4336,-77.4157, United States
Lakewood,39.6977,-105.1168, United States
Sariwon,38.507,125.762,"Korea, North"
Beian,48.239,126.482,China
Battambang,13.1,103.2,Cambodia
Guangshui,31.6204,114,China
Middelburg,-25.7596,29.47,South Africa
Mahajanga,-15.67,46.345,Madagascar
La Serena,-29.9,-71.25,Chile
Chetumal,18.5,-88.3,Mexico
Gandajika,-6.7396,23.96,Congo (Kinshasa)
Pathum Thani,14.0171,100.5333,Thailand
Cairns,-16.8878,145.7633,Australia
Kovrov,56.3604,41.33,Russia
Tuscaloosa,33.2348,-87.5266, United States
Osorno,-40.57,-73.16,Chile
Tottori,35.5004,134.2333,Japan
San Cristobal,18.416,-70.109,Dominican Republic
Limassol,34.6754,33.0333,Cyprus
Moanda,-5.9229,12.355,Congo (Kinshasa)
Rio Cuarto,-33.13,-64.35,Argentina
Masjed Soleyman,31.98,49.2999,Iran
Sunnyvale,37.3836,-122.0257, United States
Lake Charles,30.2022,-93.2141, United States
Hollywood,26.0294,-80.1679, United States
Mufulira,-12.55,28.26,Zambia
Pasadena,29.6584,-95.1499, United States
Chincha Alta,-13.4196,-76.14,Peru
Fyzabad,26.7504,82.17,India
Pomona,34.0585,-117.7626, United States
Kansas City,39.1234,-94.7443, United States
Dingzhou,38.5004,115,China
Rondonopolis,-16.4695,-54.64,Brazil
Golmeh,33.6304,46.43,Iran
Usak,38.6804,29.42,Turkey
Nusaybin,37.075,41.2184,Turkey
Macon,32.8065,-83.6974, United States
San Francisco de Macoris,19.3,-70.25,Dominican Republic
Zabid,14.1951,43.3155,Yemen
Silchar,24.7904,92.79,India
Kaihua,23.3724,104.2497,China
Novokuybyshevsk,53.12,49.9199,Russia
Mudon,16.2618,97.7215,Burma
Limoges,45.83,1.25,France
Deyang,31.1333,104.4,China
Samalut,28.3004,30.71,Egypt
Luanshya,-13.1333,28.4,Zambia
Escondido,33.1347,-117.0723, United States
Al Manaqil,14.2504,32.98,Sudan
Abbotsford,49.0504,-122.3,Canada
Guanare,9.05,-69.75,Venezuela
Bintulu,3.1664,113.036,Malaysia
Dundee,56.4704,-3,United Kingdom
Nazareth,32.704,35.2955,Israel
Maragheh,37.4204,46.22,Iran
Balti,47.7591,27.9053,Moldova
As Suwayhirah as Sahil,24.362,56.7344,Oman
Benguela,-12.5783,13.4072,Angola
Guarapuava,-25.38,-51.48,Brazil
Uzhhorod,48.63,22.25,Ukraine
Binghamton,42.1014,-75.9093, United States
Kitale,1.0305,34.9899,Kenya
Chillan,-36.6,-72.106,Chile
Urganch,41.56,60.64,Uzbekistan
Vryheid,-27.76,30.79,South Africa
Yilan,24.75,121.75,Taiwan
Miaoli,24.57,120.82,Taiwan
Tororo,0.7104,34.17,Uganda
Pattani,6.864,101.25,Thailand
M'Sila,35.7,4.545,Algeria
Keren,15.6804,38.45,Eritrea
Cao Lanh,10.467,105.636,Vietnam
Khiwa,41.3911,60.3557,Uzbekistan
Carora,10.19,-70.08,Venezuela
Warner Robins,32.5975,-83.6526, United States
New Bedford,41.6697,-70.9428, United States
Targu-Mures,46.5582,24.5578,Romania
Perugia,43.1104,12.39,Italy
Xicheng,23.38,103.1501,China
Topeka,39.0346,-95.6955, United States
Beaumont,30.085,-94.1451, United States
Paterson,40.9147,-74.1624, United States
Joliet,41.5189,-88.1499, United States
Gyumri,40.7894,43.8475,Armenia
Palangkaraya,-2.2096,113.91,Indonesia
Jiayuguan,39.82,98.3,China
Hamilton,-37.7783,175.2896,New Zealand
Leesburg,28.7658,-81.8995, United States
Yala,6.5505,101.2851,Thailand
Elkhart,41.6912,-85.962, United States
Diourbel,14.6604,-16.24,Senegal
Jijel,36.822,5.766,Algeria
Lang Son,21.846,106.757,Vietnam
Trang,7.5634,99.608,Thailand
Odessa,31.8831,-102.3406, United States
Turbat,25.9918,63.0718,Pakistan
Medea,36.2704,2.77,Algeria
Kolomna,55.08,38.785,Russia
Naperville,41.7483,-88.1657, United States
Fairfield,38.2594,-122.0319, United States
San Juan del Rio,20.38,-100,Mexico
Manghyshlaq,43.6905,51.1417,Kazakhstan
Guastatoya,14.85,-90.0167,Guatemala
Trondheim,63.4167,10.4167,Norway
Man,7.4004,-7.55,Côte D’Ivoire
Wamba,2.1404,27.99,Congo (Kinshasa)
Gulu,2.78,32.28,Uganda
Aix-en-Provence,43.52,5.45,France
Gharyan,32.1704,13.02,Libya
Ambala,30.32,76.82,India
Cam Ranh,11.902,109.2207,Vietnam
Torrance,33.8346,-118.3417, United States
Ibarra,0.3604,-78.13,Ecuador
Matanzas,23.0415,-81.5775,Cuba
Perpignan,42.7,2.9,France
Pocos de Caldas,-21.78,-46.57,Brazil
Tabora,-5.02,32.8,Tanzania
Dar`a,32.625,36.105,Syria
Bruges,51.2204,3.23,Belgium
Santo Agostinho,-8.29,-35.03,Brazil
Dawei,14.098,98.195,Burma
Hanzhong,33.13,107.03,China
La Ceiba,15.7631,-86.797,Honduras
Krishnanagar,23.3803,88.53,India
Phra Nakhon Si Ayutthaya,14.3588,100.5684,Thailand
Quchan,37.1118,58.5015,Iran
Pointe-a-Pitre,16.2415,-61.533,Guadeloupe
Biarritz,43.4733,-1.5616,France
Panama City,30.1995,-85.6003, United States
Los Angeles,-37.46,-72.36,Chile
Concordia,-31.3896,-58.03,Argentina
Machakos,-1.5095,37.26,Kenya
Brest,48.3904,-4.495,France
Metairie,29.9976,-90.1781, United States
Kolar,13.1337,78.1334,India
Kairouan,35.6804,10.1,Tunisia
Le Mans,48.0004,0.1,France
Tall `Afar,36.376,42.4497,Iraq
Bellevue,47.5953,-122.155, United States
Kumba,4.6404,9.44,Cameroon
Jinchang,38.4957,102.1739,China
Tuzla,44.5505,18.68,Bosnia And Herzegovina
Szekesfehervar,47.1947,18.4081,Hungary
Midland,32.0249,-102.1137, United States
Carolina,18.4054,-65.9792,Puerto Rico
Huelva,37.2504,-6.9299,Spain
Sarnia,42.9666,-82.4,Canada
Goma,-1.6788,29.2218,Congo (Kinshasa)
Merced,37.3057,-120.4779, United States
Tizi Ouzou,36.8,4.0333,Algeria
Kafr ash Shaykh,31.109,30.936,Egypt
Mesquite,32.7623,-96.5889, United States
Ajdabiya,30.77,20.22,Libya
Otaru,43.1887,140.9783,Japan
Ipswich,52.0703,1.17,United Kingdom
Logrono,42.4704,-2.43,Spain
Stara Zagora,42.4231,25.6227,Bulgaria
Bechar,31.6111,-2.23,Algeria
Kenema,7.8804,-11.19,Sierra Leone
Amiens,49.9004,2.3,France
Calama,-22.45,-68.92,Chile
Macae,-22.38,-41.79,Brazil
Cape Coast,5.1104,-1.25,Ghana
Houma,29.5799,-90.7058, United States
Pleiku,13.9833,108,Vietnam
Pyatigorsk,44.08,43.09,Russia
Charleston,38.3484,-81.6323, United States
Cajamarca,-7.15,-78.53,Peru
Pasadena,34.1597,-118.139, United States
Arzamas,55.4,43.8,Russia
Massawa,15.6101,39.45,Eritrea
Durres,41.3178,19.4482,Albania
Nawabganj,24.5804,88.35,Bangladesh
Pueblo,38.2713,-104.6105, United States
Saida,34.8404,0.14,Algeria
Ciego de Avila,21.84,-78.7619,Cuba
Altay,47.8666,88.1166,China
Jieshou,33.2504,115.35,China
Chongju,39.6813,125.2163,"Korea, North"
Arnhem,51.988,5.923,Netherlands
Phuket,7.8765,98.3815,Thailand
Nong'an,44.4304,125.1701,China
Ciudad de Melilla,35.3,-2.95,Spain
Tyler,32.3184,-95.3065, United States
Paranagua,-25.5279,-48.5345,Brazil
Ghazni,33.5633,68.4178,Afghanistan
Comodoro Rivadavia,-45.87,-67.5,Argentina
As Salt,32.0392,35.7272,Jordan
Labe,11.32,-12.3,Guinea
Orange,33.8038,-117.8218, United States
Al'met'yevsk,54.9004,52.3199,Russia
Fullerton,33.8841,-117.9279, United States
Miramar,25.9773,-80.3351, United States
Lhokseumawe,5.1914,97.1415,Indonesia
Orekhovo-Zuyevo,55.82,38.98,Russia
Santa Maria,34.9333,-120.4432, United States
Athens,33.9508,-83.3689, United States
Peterborough,52.5804,-0.25,United Kingdom
Badajoz,38.8804,-6.97,Spain
Dunhuang,40.1427,94.662,China
Bordj Bou Arreridj,36.059,4.63,Algeria
Columbia,38.9477,-92.3255, United States
Bizerte,37.2904,9.855,Tunisia
Sherbrooke,45.4,-71.9,Canada
Piedras Negras,28.7076,-100.5317,Mexico
Gottingen,51.5204,9.92,Germany
Kumbakonam,10.9805,79.4,India
Myitkyina,25.3596,97.3928,Burma
Chinandega,12.6304,-87.13,Nicaragua
Townsville,-19.25,146.77,Australia
Yuma,32.5991,-114.5488, United States
Tiruvannamalai,12.2604,79.1,India
Zalantun,48,122.72,China
Parnaiba,-2.91,-41.77,Brazil
Pabna,24.0004,89.25,Bangladesh
Umtata,-31.58,28.79,South Africa
Bremerhaven,53.5504,8.58,Germany
Tan An,10.5337,106.4167,Vietnam
Olathe,38.8832,-94.8198, United States
Castanhal,-1.2896,-47.93,Brazil
Cerro de Pasco,-10.69,-76.27,Peru
Irakleio,35.325,25.1305,Greece
Thornton,39.9205,-104.9443, United States
Harlingen,26.1916,-97.6976, United States
Oulu,65,25.47,Finland
Grand Junction,39.0877,-108.5673, United States
Shizuishan,39.2333,106.769,China
Baia Mare,47.6595,23.5791,Romania
Leon,42.58,-5.57,Spain
West Valley City,40.6889,-112.0115, United States
Gyor,47.7004,17.63,Hungary
Carrollton,32.989,-96.8999, United States
Serpukhov,54.9304,37.43,Russia
Jequie,-13.85,-40.08,Brazil
Cam Pha,21.0404,107.32,Vietnam
Lira,2.2604,32.89,Uganda
Roseville,38.7691,-121.3178, United States
Pyay,18.8165,95.2114,Burma
Orsha,54.5153,30.4215,Belarus
May Pen,17.9666,-77.2333,Jamaica
Warren,42.4934,-83.027, United States
Souk Ahras,36.2904,7.95,Algeria
Bloomington,40.4757,-88.9703, United States
Zakhu,37.1445,42.6872,Iraq
Cartago,4.75,-75.91,Colombia
Hampton,37.0551,-76.3629, United States
Caxias,-4.833,-43.35,Brazil
Ravenna,44.4204,12.22,Italy
's-Hertogenbosch,51.6833,5.3167,Netherlands
Ramapo,41.1404,-74.1072, United States
Nevinnomyssk,44.6201,41.95,Russia
Surprise,33.68,-112.4524, United States
Las Cruces,32.3265,-106.7893, United States
Touggourt,33.1,6.06,Algeria
Greeley,40.4151,-104.7705, United States
Pervoural'sk,56.91,59.955,Russia
Yunxian Chengguanzhen,32.8082,110.8136,China
Siauliai,55.9386,23.325,Lithuania
Birganj,27.0004,84.8666,Nepal
Yakima,46.5923,-120.5496, United States
Riohacha,11.5403,-72.91,Colombia
Musoma,-1.4896,33.8,Tanzania
Uppsala,59.8601,17.64,Sweden
Awasa,7.06,38.477,Ethiopia
Coral Springs,26.2702,-80.2591, United States
Namibe,-15.19,12.16,Angola
Kislovodsk,43.91,42.72,Russia
Sterling Heights,42.5809,-83.0305, United States
San Luis,16.2,-89.44,Guatemala
Blitar,-8.0696,112.15,Indonesia
Mauldin,34.7866,-82.2997, United States
Dimitrovgrad,54.2504,49.56,Russia
Pindamonhangaba,-22.92,-45.47,Brazil
Shahrud,36.4229,54.9629,Iran
Papeete,-17.5334,-149.5667,French Polynesia
Saint John's,47.585,-52.681,Canada
Racine,42.7274,-87.8135, United States
Opole,50.685,17.9313,Poland
Tra Vinh,9.934,106.334,Vietnam
Murom,55.5704,42.04,Russia
Cienaga,11.0104,-74.25,Colombia
Lae,-6.733,146.99,Papua New Guinea
Pilibhit,28.64,79.81,India
Ferrara,44.8504,11.6099,Italy
Novomoskovsk,54.09,38.22,Russia
Buzau,45.1565,26.8065,Romania
Stamford,41.1035,-73.5583, United States
Pinsk,52.1279,26.0941,Belarus
Shuangcheng,45.3503,126.28,China
Abohar,30.1204,74.29,India
Ninh Binh,20.2543,105.975,Vietnam
Nikopol',47.5666,34.4062,Ukraine
Florencia,1.6104,-75.62,Colombia
Girardot,4.31,-74.81,Colombia
Elizabeth,40.6657,-74.1912, United States
Jaragua do Sul,-26.48,-49.1,Brazil
Sannar,13.55,33.6,Sudan
Masaya,11.969,-86.095,Nicaragua
Baidoa,3.12,43.65,Somalia
Tokat,40.306,36.563,Turkey
Erzincan,39.7526,39.4928,Turkey
Andong,36.5659,128.725,South Korea
Tete,-16.17,33.58,Mozambique
Copiapo,-27.36,-70.34,Chile
Batticaloa,7.717,81.7,Sri Lanka
Shahr-e Kord,32.321,50.854,Iran
Kokshetau,53.3,69.42,Kazakhstan
Idlib,35.9297,36.6317,Syria
Xai-Xai,-25.04,33.64,Mozambique
Kamina,-8.73,25.01,Congo (Kinshasa)
Larisa,39.6304,22.42,Greece
Kamyshin,50.0804,45.4,Russia
Karabuk,41.2,32.6,Turkey
Cambridge,52.2004,0.1166,United Kingdom
Kent,47.3887,-122.2128, United States
Besancon,47.23,6.03,France
Greenville,35.5956,-77.3768, United States
Sakaka,30,40.1333,Saudi Arabia
Jima,7.68,36.83,Ethiopia
Jirja,26.3304,31.88,Egypt
Manzanillo,20.3438,-77.1166,Cuba
Surt,31.21,16.59,Libya
Al Hasakah,36.4833,40.75,Syria
Darnah,32.7648,22.6391,Libya
Ekibastuz,51.73,75.3199,Kazakhstan
Divo,5.839,-5.36,Côte D’Ivoire
Simi Valley,34.2663,-118.749, United States
San Nicolas de los Arroyos,-33.33,-60.24,Argentina
Braganca Paulista,-22.95,-46.55,Brazil
Worcester,-33.64,19.4399,South Africa
Tukuyu,-9.2496,33.64,Tanzania
Port Blair,11.667,92.736,India
Elblag,54.19,19.4027,Poland
Panevezys,55.74,24.37,Lithuania
Wau,7.7,27.99,South Sudan
Burlington,36.0762,-79.4687, United States
Alipur Duar,26.4837,89.5667,India
Lafia,8.4904,8.52,Nigeria
Santa Clara,37.3646,-121.968, United States
Sancti Spiritus,21.9301,-79.4425,Cuba
Pakokku,21.332,95.0866,Burma
Hathras,27.6,78.05,India
Neftekamsk,56.0835,54.2631,Russia
Gafsa,34.4204,8.78,Tunisia
Johnson City,36.3406,-82.3803, United States
Sogamoso,5.72,-72.94,Colombia
Edirne,41.6704,26.57,Turkey
Songea,-10.68,35.65,Tanzania
Tay Ninh,11.323,106.147,Vietnam
Loja,-3.99,-79.21,Ecuador
Macheng,31.18,115.03,China
Carupano,10.67,-63.23,Venezuela
Tarragona,41.1204,1.25,Spain
Itapetininga,-23.59,-48.04,Brazil
Tengyue,25.0333,98.4666,China
Boulder,40.0249,-105.2523, United States
Bellingham,48.7543,-122.4687, United States
Montego Bay,18.4667,-77.9167,Jamaica
Magway,20.1445,94.9196,Burma
Pangkalpinang,-2.08,106.15,Indonesia
Malanje,-9.54,16.34,Angola
Gashua,12.8705,11.04,Nigeria
Leeuwarden,53.2504,5.7834,Netherlands
Lubango,-14.91,13.49,Angola
Fort Smith,35.3493,-94.3695, United States
Sorong,-0.8554,131.285,Indonesia
Kumbo,6.2204,10.68,Cameroon
Ghardaia,32.49,3.67,Algeria
Kelowna,49.9,-119.4833,Canada
Amherst,43.0117,-78.7569, United States
Lynchburg,37.4003,-79.1909, United States
Marvdasht,29.8014,52.8215,Iran
Kenosha,42.5864,-87.8762, United States
Semnan,35.5548,53.3743,Iran
Santa Tecla,13.674,-89.29,El Salvador
Zlin,49.2304,17.65,Czech Republic
Fasa,28.9718,53.6715,Iran
Lysychans'k,48.9204,38.4274,Ukraine
Drohobych,49.3444,23.4994,Ukraine
My Tho,10.3504,106.35,Vietnam
Laiwu,36.2004,117.66,China
Alagoinhas,-12.14,-38.43,Brazil
Rudnyy,52.9527,63.13,Kazakhstan
East Los Angeles,34.0326,-118.1691, United States
South Lyon,42.4614,-83.6526, United States
Higuey,18.616,-68.708,Dominican Republic
Round Rock,30.5254,-97.6659, United States
Potchefstroom,-26.6996,27.1,South Africa
Siracusa,37.0704,15.29,Italy
Guelma,36.466,7.428,Algeria
Uruguaiana,-29.7696,-57.09,Brazil
Indramayu,-6.3356,108.319,Indonesia
Gagnoa,6.1504,-5.88,Côte D’Ivoire
Porto Seguro,-16.4296,-39.08,Brazil
Minzhu,43.7163,127.346,China
Segou,13.44,-6.26,Mali
Pati,-6.7415,111.0347,Indonesia
San Fernando,7.9,-67.4699,Venezuela
Brits,-25.6296,27.78,South Africa
Maina,13.4692,144.7332,Guam
Maastricht,50.853,5.677,Netherlands
Berkeley,37.8723,-122.276, United States
Tekirdag,40.9909,27.51,Turkey
Aalborg,57.0337,9.9166,Denmark
Barbacena,-21.22,-43.77,Brazil
Tauranga,-37.6964,176.1536,New Zealand
Lianhe,47.1364,129.2859,China
Olmaliq,40.8504,69.595,Uzbekistan
Billings,45.7889,-108.5509, United States
Sassari,40.73,8.57,Italy
Karaman,37.1815,33.215,Turkey
Ponce,18.012,-66.6198,Puerto Rico
Redding,40.5698,-122.365, United States
Yuba City,39.1357,-121.6381, United States
Manbij,36.5266,37.9563,Syria
Duluth,46.7757,-92.1392, United States
Larache,35.2004,-6.16,Morocco
Huanghua,38.3704,117.33,China
Pearland,29.5585,-95.3215, United States
Puerto Plata,19.7902,-70.6902,Dominican Republic
Maxixe,-23.866,35.3886,Mozambique
Trois-Rivieres,46.35,-72.5499,Canada
Leominster,42.5209,-71.7717, United States
Saginaw,43.4199,-83.9501, United States
Jau,-22.2896,-48.57,Brazil
Tetovo,42.0092,20.9701,Macedonia
Iowa City,41.6559,-91.5304, United States
Udine,46.07,13.24,Italy
Arvada,39.8321,-105.1511, United States
Pleven,43.4238,24.6134,Bulgaria
Zielona Gora,51.9504,15.5,Poland
Anuradhapura,8.35,80.3833,Sri Lanka
Shahreza,32.0115,51.8597,Iran
Tongren,27.6804,109.13,China
Berdyans'k,46.7568,36.7868,Ukraine
Bandundu,-3.31,17.38,Congo (Kinshasa)
Bama,11.5204,13.69,Nigeria
Seaside,36.6224,-121.8191, United States
Ourense,42.33,-7.87,Spain
Kingsport,36.5224,-82.5452, United States
Setubal,38.53,-8.9,Portugal
Nakhon Pathom,13.818,100.064,Thailand
Smithtown,40.8662,-73.2164, United States
Sokode,8.9905,1.15,Togo
Agadez,16.9959,7.9828,Niger
Jalingo,8.9004,11.36,Nigeria
Dunedin,-45.8854,170.491,New Zealand
Achinsk,56.27,90.5,Russia
Anaco,9.44,-64.46,Venezuela
Punta Arenas,-53.165,-70.94,Chile
San Martin,-33.07,-68.49,Argentina
Independence,39.0871,-94.3503, United States
Langsa,4.6736,97.9664,Indonesia
Vyborg,60.7039,28.7549,Russia
Calabozo,8.9304,-67.44,Venezuela
Chiang Rai,19.9119,99.8265,Thailand
Nkongsamba,4.9604,9.94,Cameroon
Kindia,10.06,-12.87,Guinea
Gao,16.2666,-0.05,Mali
Lehigh Acres,26.612,-81.6388, United States
Port-Gentil,-0.72,8.78,Gabon
Richardson,32.9717,-96.7092, United States
Rochester,44.0151,-92.4778, United States
Huanren,41.2563,125.346,China
Guangming,45.3304,122.78,China
Puno,-15.8329,-70.0333,Peru
Jaen,37.7704,-3.8,Spain
Nizhyn,51.0541,31.8903,Ukraine
Yakeshi,49.2804,120.73,China
Boke,10.94,-14.3,Guinea
Gilroy,37.0047,-121.5856, United States
Cherkessk,44.2904,42.06,Russia
El Monte,34.0739,-118.0291, United States
Navojoa,27.0819,-109.4546,Mexico
Rock Hill,34.9413,-81.025, United States
Tahoua,14.9,5.2599,Niger
Yelets,52.58,38.5,Russia
Binzhou,37.3704,118.02,China
Inhambane,-23.858,35.3398,Mozambique
Clearwater,27.9788,-82.7624, United States
Monroe,32.5183,-92.0775, United States
Dover,39.161,-75.5203, United States
Carlsbad,33.1247,-117.2837, United States
Toliara,-23.3568,43.69,Madagascar
Guelmim,28.98,-10.07,Morocco
Pouso Alegre,-22.22,-45.94,Brazil
Kulob,37.9212,69.7757,Tajikistan
Nabeul,36.4603,10.73,Tunisia
Tuguegarao,17.6131,121.7269,Philippines
Norman,35.2335,-97.3471, United States
Ciudad Valles,21.98,-99.02,Mexico
Abilene,32.4543,-99.7384, United States
Bloomington,39.1637,-86.5257, United States
Botosani,47.7484,26.6597,Romania
Las Delicias,28.2,-105.5,Mexico
Kam'yanets'-Podil's'kyy,48.6843,26.5809,Ukraine
Texas City,29.4128,-94.9658, United States
Giyon,8.5304,37.97,Ethiopia
Shashemene,7.2004,38.59,Ethiopia
Temecula,33.4928,-117.1315, United States
Utica,43.0961,-75.226, United States
Valparai,10.3204,76.97,India
Cuito,-12.38,16.94,Angola
Maribor,46.5405,15.65,Slovenia
St. Cloud,45.5339,-94.1718, United States
Kingston,44.2337,-76.4833,Canada
Siirt,37.944,41.933,Turkey
Kankan,10.39,-9.31,Guinea
Zhijiang,27.4409,109.678,China
St. George,37.077,-113.577, United States
West Jordan,40.6024,-112.0008, United States
Kecskemet,46.9,19.7,Hungary
Laghouat,33.81,2.88,Algeria
Botucatu,-22.8796,-48.45,Brazil
Costa Mesa,33.6667,-117.9135, United States
Tobol'sk,58.1998,68.2648,Russia
Miami Gardens,25.9433,-80.2426, United States
Curico,-34.98,-71.24,Chile
Sorum,59.9135,11.3472,Norway
Cambridge,42.3759,-71.1185, United States
Santa Cruz do Sul,-29.71,-52.44,Brazil
Kipushi,-11.7596,27.25,Congo (Kinshasa)
Koencho,43.8504,143.9,Japan
Brandon,27.9367,-82.3, United States
Exeter,50.7004,-3.53,United Kingdom
Downey,33.9379,-118.1312, United States
Coeur d'Alene,47.704,-116.7933, United States
Tokmok,42.8299,75.2846,Kyrgyzstan
Westminster,39.8837,-105.0624, United States
Nefteyugansk,61.0777,72.7027,Russia
Shaowu,27.3004,117.5,China
Mojokerto,-7.4696,112.43,Indonesia
Satu Mare,47.792,22.885,Romania
Elgin,42.0385,-88.3229, United States
Guanajuato,21.0204,-101.28,Mexico
El Centro,32.7867,-115.5586, United States
Mazyr,52.046,29.2722,Belarus
Iguala de la Independencia,18.37,-99.54,Mexico
Waterloo,42.492,-92.3522, United States
Nakhon Sawan,15.7,100.07,Thailand
Iringa,-7.7696,35.69,Tanzania
Zwolle,52.524,6.097,Netherlands
Kandy,7.28,80.67,Sri Lanka
Conselheiro Lafaiete,-20.67,-43.79,Brazil
Daugavpils,55.88,26.51,Latvia
Kuqa,41.7277,82.9364,China
Magelang,-7.4696,110.18,Indonesia
Santa Rosa,-36.62,-64.3,Argentina
Lowell,42.6389,-71.3217, United States
Jawhar,2.767,45.5166,Somalia
Gresham,45.5023,-122.4413, United States
Algeciras,36.1267,-5.4665,Spain
Nsukka,6.867,7.3834,Nigeria
Nguru,12.8804,10.45,Nigeria
North Charleston,32.9067,-80.0722, United States
Balkanabat,39.5124,54.3649,Turkmenistan
San Buenaventura,34.2741,-119.2314, United States
Manzanillo,19.0496,-104.3231,Mexico
Pemba,-12.983,40.5323,Mozambique
Volos,39.37,22.95,Greece
